1502556577 - 
1502556577 - 
1502556577 - 
1502556577 - 
1502556577 - ,22,24,,,,1.48,0.87,1.20*05
1502556577 - ^A$GPGGA,164850.000,2615.8141,N,08134.6252,W,2,08,0.89,20.4,M,-27.7,M,0000,0000*62
1502556577 - $GPGGA,164846.000,2615.8141,N,08134.6252,W,2,08,0.89,20.,M,-27.7,M,0000,0000*65
1502556577 - $GPRMC,164937.000,A,2615.8137,N,08134.6257,W,0.01,75.10,120817,,,D*4D
1502556577 - $GPVTG,113.54,T,,M,0.03,N,0.06,K,D*3F
1502556577 - $GPVTG,75.10,T,,M,0.01,N,0.01,K,D*0B
1502556578 - 
1502556578 - 
1502556578 - 
1502556578 - 
1502556578 - 
1502556578 - .6257,W,0.01,75.10,120817,,,D*4D
1502556578 - 6257,W,0.01,75.10,120817,,,D*4D
1502556578 - 8134.6252,W,2,08,0.89,20.,M,-27.7,M,0000,0000*65
1502556578 - 8134.6252,W,2,08,0.89,20.,M,-27.7,M,0000,0000*65
1502556578 - 8134.6252,W,2,08,0.89,20.,M,-27.7,M,0000,0000*65
1502556578 - ^A$GPGGA,164850.000,2615.8141,N,08134.6252,W,2,08,0.89,20.4,M,-27.7,M,0000,0000*6©$GPGGA,164938.000,2615.8137,N,08134.6256,W,2,09,0.87,19.6,M,-27.7,M,0000,0000*6F
1502556578 - ^A$GPGGA,164850.000,2615.8141,N,08134.6252,W,2,08,0.89,20.4,M,-27.7,M,0000,0000*6©$GPVTG,113.54,T,,M,0.03,N,0.06,K,D*3F
1502556578 - ^A$GPGGA,164850.000,2615.8141,N,08134.6252,W,2,08,0.89,20.4,M,-27.7,M,0000,0000*6©$GPVTG,75.10,T,,M,0.01,N,0.01,K,D*0B
1502556578 - $GPGSA,A,,06,30,03,19,28,02,22,24,,,,,1.55,0.89,1.27*0(,$GPRMC,164937.000,A,2615.8137,N,08134.6257,W,0.01,75.10,120817,,,D*4D
1502556578 - $GPGSA,A,3,06,30,03,19,28,17,02,22,24,,,,1.48,0.87,1.20*05
1502556578 - $GPGSA,A,3,06,30,03,19,28,17,02,22,24,,,,1.48,0.87,1.20*05
1502556578 - $GPRMC,164938.000,A,2615.8137,N,08134.6256,W,0.01,57.61,120817,,,D*45
1502556578 - $GPVTG,57.61,T,,M,0.01,N,0.02,K,D*0E
1502556579 - 
1502556579 - 
1502556579 - 
1502556579 - 
1502556579 - 
1502556579 - 
1502556579 - 
1502556579 - 
1502556579 - 0.87,19.6,M,-27.7,M,0000,0000*6F
1502556579 - $GPGSA,A,3,06,30,03,19,28,17,02,22,24,,,,1.48,0.87,1.20*05
1502556579 - $GPGSV,3,1,11,06,64,253,33,28,59,118,40,17,51,014,29,19,49,335,32*7C
1502556579 - $GPGSV,3,2,11,03,27,061,34,48,26,250,32,02,22,236,27,30,16,181,31*7E
1502556579 - $GPGSV,3,3,11,24,12,308,17,22,09,045,24,01,03,043,19*42
1502556579 - $GPRMC,164938.000,A,2615.8137,N,08134.6256,W,0.01,57.61,120817,,,D*4
1502556579 - $GPRMC,164939.000,A,2615.8137,N,08134.6256,W,0.01,192.43,120817,,,D*7C
1502556579 - $GPVTG,192.43,T,,M,0.01,N,0.03,K,D*37
1502556579 - POWER - 2017-08-12, 16:49:39, 107000000, 108000000, 1000000.00, 101, 10.09, 10.09
1502556579 - :¤z¼$GPGGA,164939.000,2615.8137,N,08134.6256,W,2,09,0.87,19.6,M,-27.7,M,0000,0000*6E
1502556580 - 
1502556580 - 
1502556580 - 
1502556580 - 
1502556580 - 
1502556580 - 
1502556580 - 000,0000*6E
1502556580 - 000,0000*6E
1502556580 - 000,0000*6E
1502556580 - 000,0000*6E
1502556580 - ,-27.7,M,0000,0000*6E
1502556580 - ,-27.7,M,0000,000*6E
1502556580 - $GPGGA,164939.000,2615.8137,N,08134.6256,W,2,09,0.87,19.6,M,-27.7,M,0000,0000*6E
1502556580 - $GPGGA,164940.000,2615.8137,N,08134.6256,W,2,09,0.87,19.5,M,-27.7,M,0000,0000*63
1502556580 - $GPGSA,A,3,06,30,03,19,28,17,02,22,24,,,,1.48,0.87,1.20*05
1502556580 - $GPGSA,A,3,06,30,03,19,28,17,02,22,24,,,,1.48,0.87,1.20*05
1502556580 - $GPGSA,A,3,06,30,03,19,28,17,02,22,24,,,,1.48,0.87,1.20*05
1502556580 - ^$GPGSV,3,1,11,06,64,253,33,28,59,118,40,17,51,014,29,19,49,335,32*7C
1502556580 - $GPGSV,3,1,11,06,64,253,33,28,59,118,40,17,51,014,29,19,49,335,32*7C
1502556580 - ^$GPGSV,3,211,03,27,061,34,48,26,250,32,02,22,236,27,30,16,181,31*7E
1502556580 - $GPGSV,3,2,11,03,27,061,34,48,26,250,32,02,22,236,27,30,16,181,31*7E
1502556580 - $GPGSV,3,3,11,24,12,308,17,22,09,045,24,01,03,043,19*42
1502556580 - $GPRMC,164939.000,A,2615.8137,N,08134.6256,W,0.01,192.43,120817,,,D*7C
1502556580 - $GPRMC,164940.000,A,2615.8137,N,08134.6256,W,0.01,9.14,120817,,,D*73
1502556580 - $GPVTG,192.43,T,,M0.01,N,0.03,K,D*37
1502556580 - $GPVTG,9.14,T,,M,0.01,N,0.02,K,D*37
1502556580 - POWER - 2017-08-12, 16:49:40, 107000000, 108000000, 1000000.00, 122, 9.97, 9.97
1502556581 - 
1502556581 - 
1502556581 - 
1502556581 - 
1502556581 - 000,0000*6E
1502556581 - 000,0000*6E
1502556581 - 00,0000*6E
1502556581 - 000,000*6E
1502556581 - 000,000*6E
1502556581 - ,-27.7,M,0000,000*6E
1502556581 - $GPGSA,A,3,06,30,03,19,28,17,02,22,24,,,,1.48,0.87,1.20*05
1502556581 - ^$GPGSV,3,1,11,06,64,253,33,28,59,118,40,17,51,014,29,19,49,335,32*7C
1502556581 - ^$GPGSV,3,1,11,06,64,253,33,28,59,118,40,17,51,014,29,19,49,335,32*7C
1502556581 - $GPGSV,3,1,11,06,64,253,33,28,59,118,40,17,51,014,29,19,49,335,32*7C
1502556581 - ^$GPGSV,3,211,03,27,061,34,48,26,250,3©$GPGGA,164941.000,2615.8137,N,08134.6256,W,2,09,0.87,19.5,M,-27.7,M,0000,0000*62
1502556581 - ^$GPGSV,3,211,03,27,061,34,48,26,250,3©$GPGSV,3,1,11,06,64,253,33,28,59,118,40,17,51,014,29,19,49,335,32*7C
1502556581 - ^$GPGSV,3,211,03,27,061,34,48,26,250,3©^$GPGSV,3,1,11,06,64,253,33,28,59,118,40,17,51,04,29,19,49,335,32*7C
1502556581 - ^$GPGSV,3,3,1(,$GPGSA,A,3,06,30,03,19,28,17,02,22,24,,,,1.48,0.87,1.20*05
1502556581 - $GPRMC,164941.000,A,2615.8137,N,08134.6256,W,0.01,79.32,120817,,,D*41
1502556581 - $GPVTG,79.32,T,,M,0.01,N,0.02,K,D*04
1502556581 - POWER - 2017-08-12, 16:49:41, 107000000, 108000000, 1000000.00, 122, 9.92, 9.92
1502556582 - 00,0000*6E
1502556582 - 000,000*6E
1502556582 - 0,0000*6E
1502556582 - 335,32*7C
1502556582 - ^$GPGSV,3,1,11,06,64,253,33,28,59,118,40,17,51,014,29,19,(,$GPGSA,A,3,06,30,03,19,28,17,02,22,24,,,,1.48,0.87,1.20*05
1502556582 - ^$GPGSV,3,211,03,27,061,34,48,26,250,3©^$GPGSV,3,1,11,06,64,253,33,28,59,118,40,17,51,04,29,19,49,335,32*7C
1502556582 - ^©$GPRMC,164941.000,A,2615.8137,N,08134.6256,W,0.01,79.32,120817,,,D*41
1502556582 - POWER - 2017-08-12, 16:49:42, 107000000, 108000000, 1000000.00, 122, 9.86, 9.86
