1502556363 - 
1502556363 - 
1502556363 - 
1502556363 - 
1502556363 - 
1502556363 - 
1502556363 - 
1502556363 - 
1502556363 - $GPGGA,164216.000,2615.8097,N,08134.6237,W,2,08,1.08,38.0,M,-27.7,M,0000,0000*66
1502556363 - $GPGGA,164603.000,2615.8114,N,08134.6228,W,2,07,1.18,27.4,M,-27.7,M,0000,0000*66
1502556363 - $GPGSA,A,3,06,30,03,19,28,17,02,22,,,,,1.81,1.08,1.45*03
1502556363 - $GPGSA,A,3,06,30,03,19,28,17,02,,,,,,2.25,1.18,1.92*05
1502556363 - $GPRMC,164216.000,A,2615.8097,N,08134.6237,W,0.01,71.14,120817,,,D*48
1502556363 - $GPRMC,164603.000,A,2615.8114,N,08134.6228,W,0.01,131.46,120817,,,D*7E
1502556363 - $GPVTG,131.46,T,,M,0.01,N,0.02,K,D*3A
1502556363 - $GPVTG,71.14,T,,M,0.01,N,0.02,K,D*08
1502556364 - 
1502556364 - 
1502556364 - 
1502556364 - 
1502556364 - 
1502556364 - 
1502556364 - 
1502556364 - 
1502556364 - 
1502556364 - 
1502556364 - 
1502556364 - 0,0000*66
1502556364 - 0,0000*66
1502556364 - .0,M,-27.7,M,0000,0000*66
1502556364 - 6228,W,0.01,131.46,120817,,,D*7E
1502556364 - $GPGSA,A,3,06,30,03,19,28,17,02,22,,,,,1.81,1.08,1.45*03
1502556364 - $GPGSA,A,3,06,30,03,19,28,17,02,22,,,,,1.81,1.08,1.45*03
1502556364 - $GPGSA,A,3,06,30,03,19,28,17,02,22,,,,,1.81,1.08,1.45*03
1502556364 - $GPGSA,A,3,06,30,03,19,28,17,02,,,,,,2.25,1.18,1.92*05
1502556364 - $GPGSA,(,$GPGSA,A,3,06,30,03,19,28,17,02,,,,,,2.25,1.18,1.92*05
1502556364 - $GPGSV,3,1,11,06,63,250,34,28,60,115,37,17,51,011,25,19,49,333,18*7F
1502556364 - $GPGSV,3,2,11,03,28,063,32,48,26,250,32,02,21,235,17,30,17,181,34*72
1502556364 - $GPGSV,3,3,11,24,11,309,18,22,10,046,,01,04,043,*4D
1502556364 - $GPRMC,164216.000,A,2615.8097,N,08134.6237,W,0.01,71.14,1208©$GPGGA,164604.000,2615.8114,N,08134.6228,W,2,07,1.18,27.4,M,-27.7,M,0000,0000*61
1502556364 - $GPRMC,164216.000,A,2615.8097,N,08134.6237,W,0.01,71.14,1208©$GPRMC,164603.000,A,2615.8114,N,08134.6228,W,0.01,131.46,120817,,,D*7E
1502556364 - $GPRMC,164216.000,A,2615.8097,N,08134.6237,W,0.01,71.14,1208©$GPVTG,131.46,T,,M,0.01,N,0.02,K,D*3A
1502556364 - POWER - 2017-08-12, 16:46:04, 314000000, 315000000, 1000000.00, 5, 8.86, 8.86
1502556364 - POWER - 2017-08-12, 16:46:04, 315000000, 316000000, 1000000.00, 5, 8.82, 8.82
1502556365 - 
1502556365 - 
1502556365 - 
1502556365 - 
1502556365 - 
1502556365 - 
1502556365 - 
1502556365 - 
1502556365 - 
1502556365 - 
1502556365 - $GPGGA,164216.000,2615.8097,N,08134.6237,W,2,08,1.08,38.0,M,-27.7,M,0000,0000*66
1502556365 - $GPGGA,164605.000,2615.8114,N,08134.6228,W,2,07,1.18,27.4,M,-27.7,M,0000,0000*60
1502556365 - $GPGSA,A,3,06,30,03,19,28,17,02,22,,,,,1.81,1.08,1.45*03
1502556365 - $GPGSA,A,3,06,30,03,19,28,17,02,,,,,,2.25,1.18,1.92*05
1502556365 - $GPRMC,164216.000,A,2615.8097,N,08134.6237,W,0.01,71.14,120817,,,D*48
1502556365 - $GPRMC,164604.000,A,2615.8114,N,08134.6228,W,0.01,81.96,120817,,,D*4E
1502556365 - $GPRMC,164605.000,A,2615.8114,N,08134.6228,W,0.02,96.36,120817,,,D*40
1502556365 - $GPVTG,71.14,T,,M,0.01,N,0.02,K,D*08
1502556365 - $GPVTG,81.96,T,,M,0.01,N,0.02,K,D*0D
1502556365 - $GPVTG,96.36,T,,M,0.02,N,0.04,K,D*04
1502556365 - POWER - 2017-08-12, 16:46:05, 314000000, 315000000, 1000000.00, 8, 9.04, 9.04
1502556365 - POWER - 2017-08-12, 16:46:05, 315000000, 316000000, 1000000.00, 8, 8.81, 8.81
1502556366 - 
1502556366 - 
1502556366 - 
1502556366 - 
1502556366 - 
1502556366 - 
1502556366 - 
1502556366 - 
1502556366 - 
1502556366 - 
1502556366 - 
1502556366 - 00,0000*60
1502556366 - 00,0000*60
1502556366 - .4,M,-27.7,M,0000,0000*60
1502556366 - .6228,W,0.02,96.36,120817,,,D*40
1502556366 - $GPGGA,164216.000,2615.8097,N,08134.6237,W,2,08,1.08,38.0,M,-27.7,M,0000,0000*66
1502556366 - $GPGSA,A,3,06,30,03,19,28,17,02,22,,,,,1.81,1.08,1.45*03
1502556366 - $GPGSA,A,3,06,30,03,19,28,17,02,22,,,,,1.8$GPGGA,164606.000,2615.8114,N,08134.6228,W,2,07,1.18,27.4,M,-27.7,M,0000,0000*63
1502556366 - $GPGSA,A,3,06,30,03,19,28,17,02,22,,,,,1.8$GPGSA,A,3,06,30,03,19,28,17,02,,,,,,2.25,1.18,1.92*05
1502556366 - $GPGSA,A,3,06,30,03,19,28,17,02,22,,,,,1.8$GPRMC,164605.000,A,2615.8114,N,08134.6228,W,0.02,96.36,120817,,,D*40
1502556366 - $GPGSA,A,3,06,30,03,19,28,17,02,22,,,,,1.8$GPVTG,96.36,T,,M,0.02,N,0.04,K,D*04
1502556366 - $GPGSA,A,3,06,30,03,19,28,17,02,,,,,,2.25,1.18,1.92*05
1502556366 - $GPGSA,(,$GPGGA,164605.000,2615.8114,N,08134.6228,W,2,07,1.18,27.4,M,-27.7,M,0000,0000*60
1502556366 - $GPRMC,164216.000,A,2615.8097,N,08134.6237,W,0.01,71.14,120817,,,D*48
1502556366 - $GPRMC,164606.000,A,2615.8114,N,08134.6228,W,0.01,22.72,120817,,,D*4F
1502556366 - $GPVTG,22.72,T,,M,0.01,N,0.02,K,D*0E
1502556366 - $GPVTG,71.14,T,,M,0.01,N,0.02,K,D*08
1502556366 - POWER - 2017-08-12, 16:46:06, 314000000, 315000000, 1000000.00, 8, 8.76, 8.76
1502556366 - POWER - 2017-08-12, 16:46:06, 315000000, 316000000, 1000000.00, 8, 8.84, 8.84
1502556367 - 
1502556367 - 
1502556367 - 
1502556367 - 
1502556367 - 
1502556367 - 
1502556367 - 
1502556367 - 
1502556367 - 
1502556367 - $GPGSA,A,3,06,30,03,19,28,17,02,,,,,,2.25,1.18,1.92*05
1502556367 - $GPGSA,A,3,06,30,03,19,28,17,02,,,,,,2.25,1.18,1.92*05
1502556367 - $GPGSA,(,$GPGGA,164607.000,2615.8114,N,08134.6228,W,2,07,1.18,27.4,M,-27.7,M,0000,0000*62
1502556367 - $GPGSA,(,$GPGGA,164607.000,2615.81©$GPRMC,164607.000,A,2615.8114,N,08134.6228,W,0.01,42.83,120817,,,D*46
1502556367 - $GPRMC,164216.000,A,2615.8097,N,08134.6237,W,0.01,71.14,120817,,,D*48
1502556367 - $GPRMC,164607.000,A,2615.8114,N,08134.6228,W,0.01,42.83,120817,,,D*46
1502556367 - $GPVTG,42.83,T,,M,0.01,N,0.02,K,D*06
1502556367 - $GPVTG,71.14,T,,M,0.01,N,0.02,K,D*08
1502556367 - POWER - 2017-08-12, 16:46:07, 314000000, 315000000, 1000000.00, 8, 8.67, 8.67
1502556367 - POWER - 2017-08-12, 16:46:07, 315000000, 316000000, 1000000.00, 8, 8.75, 8.75
1502556368 - 
1502556368 - 
1502556368 - 
1502556368 - 
1502556368 - 
1502556368 - 
1502556368 - 
1502556368 - 
1502556368 - 
1502556368 - 
1502556368 - 
1502556368 - 
1502556368 - .000,A,2615.8097,N,08134.6237,W,0.01,71.14,120817,,,D*48
1502556368 - .000,A,2615.8097,N,08134.6237,W,0.01,71.14,120817,,,D*48
1502556368 - .6228,W,0.01,42.83,120817,,,D*46
1502556368 - $GPGSA,A,3,06,30,03,19,28,17,02,,,,,,2.25,1.18,1.92*05
1502556368 - $GPGSA,A,3,06,30,03,19,28,17,02,,,,,,2.25,1.18,1.92*05
1502556368 - $GPGSA,(,$GPGGA,164607.000,2615.81©$GPGGA,164608.000,2615.8114,N,08134.6228,W,2,07,1.18,27.4,M,-27.7,M,0000,0000*6D
1502556368 - $GPGSA,(,$GPGGA,164607.000,2615.81©$GPVTG,42.83,T,,M,0.01,N,0.02,K,D*06
1502556368 - $GPRMC,164216.000,A,2615.8097,N,08134.6237,W,0.01,71.14,120817,,,D*48
1502556368 - $GPRMC,164608.000,A,2615.8114,N,08134.6228,W,0.00,350.75,120817,,,D*71
1502556368 - $GPVTG,350.75,T,,M,0.00,N,0.01,K,D*3D
1502556368 - $GPVTG,71.14,T,,M,0.01,N,0.02,K,D*08
1502556368 - $GPVTG,71.14,T,,M,0.01,N,0.02,K,D*08
1502556368 - $GPVTG,71.14,T,,M,0.01,N,0.02,K,D*08
1502556368 - POWER - 2017-08-12, 16:46:08, 314000000, 315000000, 1000000.00, 8, 8.83, 8.83
1502556368 - POWER - 2017-08-12, 16:46:08, 315000000, 316000000, 1000000.00, 8, 8.65, 8.65
