1508595318 - 
1508595318 - 
1508595318 - 34.6290,W,0.01,109.89,211017,,,D*7C
1508595318 - $GPVTG,109.89,T,,M,0.01,N,0.02,K,D*32
1508595318 - $GPVTG,109.89,T,,M,0.01,N,0.02,K,D*32
1508595318 - ÿÿÿÿÿÿÿÿÿÿÿÿÿÿÿÿÿÿÿÿÿÿÿÿ$GPVTG,109.89,T,,M,0.01,N,0.02,K,D*32
1508595319 - 
1508595319 - 
1508595319 - 
1508595319 - 
1508595319 - ,0000*5D
1508595319 - 6,M,-27.7,M,0000,0000*5D
1508595319 - ÿÿÿÿÿÿÿÿÿÿÿÿÿÿÿÿÿÿÿÿÿÿÿÿ$GPGGA,141519.000,2615.8128,N,08134.6290,W,2,07,1.25,1.6,M,-27.7,M,0000,0000*5D
1508595319 - ÿÿÿÿÿÿÿÿÿÿÿÿÿÿÿÿÿÿÿÿÿÿÿÿ$GPGGA,141519.000,2615.8128,N,08134.6290,W,2,07,1.25,1.6,M,-27.7,M,0000,0000*5D
1508595319 - $GPGSA,A,3,02,05,17,06,12,19,09,,,,,,3.09,1.25,2.83*02
1508595319 - $GPGSA,A,3,02,05,17,06,12,19,09,,,,,,3.09,1.25,2.83*02
1508595319 - $GPRMC,141519.000,A,2615.8128,N,08134.6290,W,0.03,123.72,211017,,,D*72
1508595319 - $GPRMC,141519.000,A,2615.8128,N,08134.6290,W,0.03,123.72,211017,,,D*72
1508595319 - $GPVTG,109.89,T,,M,0.01,N,0.02,K,D*32
1508595319 - ÿÿÿÿÿÿÿÿÿÿÿÿÿÿÿÿÿÿÿÿÿÿÿÿ$GPVTG,109.89,T,,M,0.01,N,0.02,K,D*32
1508595319 - $GPVTG,123.72,T,,M,0.03,N,0.05,K,D*3B
1508595320 - 
1508595320 - 
1508595320 - 
1508595320 - 
1508595320 - ,0000*5D
1508595320 - ,0000*5D
1508595320 - ,0000*5D
1508595320 - 6290,W,0.03,123.72,211017,,,D*72
1508595320 - 6290,W,0.03,123.72,211017,,,D*72
1508595320 - 6,M,-27.7,M,0000,0000*5D
1508595320 - $GPGGA,141519.000,2615.8128,N,08134.6290,W,2,07,1.25,1.6,M,-27.7,M,0000,0000*5D
1508595320 - ÿÿÿÿÿÿÿÿÿÿÿÿÿÿÿÿÿÿÿÿÿÿÿÿ$GPGGA,141519.000,2615.8128,N,08134.6290,W,2,07,1.25,1.6,M,-27.7,M,0000,0000*5D
1508595320 - $GPGGA,141520.000,2615.8128,N,08134.6290,W,2,07,1.25,1.6,M,-27.7,M,0000,0000*57
1508595320 - $GPGSA,A,3,02,05,17,06,12,19,09,,,,,,3.09,1.25,2.83*02
1508595320 - $GPGSA,A,3,02,05,17,06,12,19,09,,,,,,3.09,1.25,2.83*02
1508595320 - $GPGSA,A,3,02,05,17,06,12,19,09,,,,,,3.09,1.25,2.83*02
1508595320 - $GPRMC,141519.000,A,2615.8128,N,08134.6290,W,0.03,123.72,211017,,,D*72
1508595320 - $GPRMC,141520.000,A,2615.8128,N,08134.6290,W,0.03,220.57,211017,,,D*7F
1508595320 - $GPVTG,109.89,T,,M,0.01,N,0.02,K,D*32
1508595320 - ÿÿÿÿÿÿÿÿÿÿÿÿÿÿÿÿÿÿÿÿÿÿÿÿ$GPVTG,109.89,T,,M,0.01,N,0.02,K,D*32
1508595320 - $GPVTG,123.72,T,,M,0.03,N,0.05,K,D*3B
1508595320 - $GPVTG,123.72,T,,M,0.03,N,0.05,K,D*3B
1508595320 - $GPVTG,220.57,T,,M,0.03,N,0.05,K,D*3C
1508595320 - POWER - 2017-10-21, 14:15:20, 433000000, 434000000, 1000000.00, 75, -0.50, -0.50
1508595321 - 
1508595321 - 
1508595321 - 
1508595321 - ,0000*57
1508595321 - ,0000*57
1508595321 - ,0000*57
1508595321 - ,0000*57
1508595321 - ,0000*5D
1508595321 - 6290,W,0.03,220.57,211017,,,D*7F
1508595321 - 6290,W,0.03,220.57,211017,,,D*7F
1508595321 - 6290,W,0.03,220.57,211017,,,D*7F
1508595321 - 6,M,-27.7,M,0000,0000*57
1508595321 - 6,M,-27.7,M,0000,0000*5D
1508595321 - ‘½>,Ô$GPGGA,141519.000,2615.8128,N,08134.6290,W,2,07,1.25,1.6,M,-27.7,M,0000,0000*5D
1508595321 - $GPGGA,141520.000,2615.8128,N,08134.6290,W,2,07,1.25,1.6,M,-27.7,M,0000,0000*57
1508595321 - ‘½>,Ô$GPGGA,141521.000,2615.8128,N,08134.6290,W,2,07,1.25,1.6,M,-27.7,M,0000,0000*56
1508595321 - $GPGSA,A,3,02,05,17,06,12,19,09,,,,,,3.09,1.25,2.83*02
1508595321 - ‘½>,Ô$GPGSA,A,3,02,05,17,06,12,19,09,,,,,,3.09,1.25,2.83*02
1508595321 - $GPRMC,141519.000,A,2615.8128,N,08134.6290,W,0.03,123.72,211017,,,D*72
1508595321 - ‘½>,Ô$GPRMC,141520.000,A,2615.8128,N,08134.6290,W,0.03,220.57,211017,,,D*7F
1508595321 - $GPRMC,141521.000,A,2615.8128,N,08134.6290,W,0.03,212.72,211017,,,D*78
1508595321 - ‘½>,Ô$GPVTG,109.89,T,,M,0.01,N,0.02,K,D*32
1508595321 - ‘½>,Ô$GPVTG,123.72,T,,M,0.03,N,0.05,K,D*3B
1508595321 - $GPVTG,212.72,T,,M,0.03,N,0.05,K,D*3A
1508595321 - ‘½>,Ô$GPVTG,220.57,T,,M,0.03,N,0.05,K,D*3C
1508595321 - POWER - 2017-10-21, 14:15:21, 433000000, 434000000, 1000000.00, 122, -0.72, -0.72
1508595322 - 
1508595322 - ,0000*56
1508595322 - ,0000*57
1508595322 - ,0000*57
1508595322 - ,0000*57
1508595322 - ,0000*57
1508595322 - 6290,W,0.03,220.57,211017,,,D*7F
1508595322 - 6290,W,0.03,220.57,211017,,,D*7F
1508595322 - 6290,W,0.03,220.57,211017,,,D*7F
1508595322 - 6,M,-27.7,M,0000,0000*56
1508595322 - 6,M,-27.7,M,0000,0000*57
1508595322 - $GPGGA,141519.000,2615.8128,N,08134.6290,W,2,07,1.25,1.6,M,-27.7,M,0000,0000*5D
1508595322 - $GPGGA,141520.000,2615.8128,N,08134.6290,W,2,07,1.25,1.6,M,-27.7,M,0000,0000*57
1508595322 - $GPGGA,141521.000,2615.8128,N,08134.6290,W,2,07,1.25,1.6,M,-27.7,M,0000,0000*56
1508595322 - $GPGSA,A,3,02,05,17,06,12,19,09,,,,,,3.09,1.25,2.83*02
1508595322 - $GPGSA,A,3,02,05,17,06,12,19,09,,,,,,3.09,1.25,2.83*02
1508595322 - $GPGSA,A,3,02,05,17,06,12,19,09,,,,,,3.09,1.25,2.83*02
1508595322 - ÿÿÿÿÿÿÿ$GPRMC,141519.000,A,2615.8128,N,08134.6290,W,0.03,123.72,211017,,,D*72
1508595322 - $GPRMC,141520.000,A,2615.8128,N,08134.6290,W,0.03,220.57,211017,,,D*7F
1508595322 - $GPRMC,141521.000,A,2615.8128,N,08134.6290,W,0.03,212.72,211017,,,D*78
1508595322 - $GPVTG,109.89,T,,M,0.01,N,0.02,K,D*32
1508595322 - $GPVTG,123.72,T,,M,0.03,N,0.05,K,D*3B
1508595322 - $GPVTG,220.57,T,,M,0.03,N,0.05,K,D*3C
1508595322 - POWER - 2017-10-21, 14:15:22, 433000000, 434000000, 1000000.00, 122, -0.73, -0.73
1508595323 - 
1508595323 - 
1508595323 - 
1508595323 - 
1508595323 - ,0000*57
1508595323 - ,0000*57
1508595323 - ,0000*57
1508595323 - ,0000*57
1508595323 - 6290,W,0.03,220.57,211017,,,D*7F
1508595323 - 6290,W,0.03,220.57,211017,,,D*7F
1508595323 - 6290,W,0.03,220.57,211017,,,D*7F
1508595323 - 6,M,-27.7,M,0000,0000*57
1508595323 - $GPGGA,141520.000,2615.8128,N,08134.6290,W,2,07,1.25,1.6,M,-27.7,M,0000,0000*57
1508595323 - $GPGGA,141522.000,2615.8128,N,08134.6290,W,2,07,1.25,1.6,M,-27.7,M,0000,0000*55
1508595323 - $GPGSA,A,3,02,05,17,06,12,19,09,,,,,,3.09,1.25,2.83*02
1508595323 - $GPGSA,A,3,02,05,17,06,12,19,09,,,,,,3.09,1.25,2.83*02
1508595323 - ÿÿÿÿÿÿÿÿÿÿÿÿÿÿÿÿÿÿÿÿÿÿÿÿ$GPGSA,A,3,02,05,17,06,12,19,09,,,,,,3.09,1.25,2.83*02
1508595323 - ÿÿÿÿÿÿÿ$GPRMC,141519.000,A,2615.8128,N,08134.6290,W,0.03,123.72,211017,,,D*72
1508595323 - $GPRMC,141520.000,A,2615.8128,N,08134.6290,W,0.03,220.57,211017,,,D*7F
1508595323 - $GPRMC,141522.000,A,2615.8128,N,08134.6290,W,0.02,156.44,211017,,,D*7C
1508595323 - $GPVTG,109.89,T,,M,0.01,N,0.02,K,D*32
1508595323 - $GPVTG,123.72,T,,M,0.03,N,0.05,K,D*3B
1508595323 - $GPVTG,156.44,T,,M,0.02,N,0.04,K,D*3C
1508595323 - $GPVTG,212.72,T,,M,0.03,N,0.05,K,D*3A
1508595323 - $GPVTG,220.57,T,,M,0.03,N,0.05,K,D*3C
1508595323 - POWER - 2017-10-21, 14:15:23, 433000000, 434000000, 1000000.00, 122, -0.77, -0.77
1508595324 - 
1508595324 - 
1508595324 - 
1508595324 - 
1508595324 - 
1508595324 - 
1508595324 - 
1508595324 - 6,M,-27.7,M,0000,0000*55
1508595324 - 6,M,-27.7,M,0000,0000*56
1508595324 - $GPGGA,141519.000,2615.8128,N,08134.6290,W,2,07,1.25,1.6,M,-27.7,M,0000,0000*5D
1508595324 - $GPGGA,141521.000,2615.8128,N,08134.6290,W,2,07,1.25,1.6,M,-27.7,M,0000,0000*56
1508595324 - $GPGGA,141522.000,2615.8128,N,08134.6290,W,2,07,1.25,1.6,M,-27.7,M,0000,0000*55
1508595324 - $GPGGA,141523.000,2615.8128,N,08134.6290,W,2,07,1.25,1.6,M,-27.7,M,0000,0000*54
1508595324 - $GPGSA,A,3,02,05,17,06,12,19,09,,,,,,3.09,1.25,2.83*02
1508595324 - $GPGSA,A,3,02,05,17,06,12,19,09,,,,,,3.09,1.25,2.83*02
1508595324 - $GPGSA,A,3,02,05,17,06,12,19,09,,,,,,3.09,1.25,2.83*02
1508595324 - $GPGSV,3,1,12,02,53,312,30,06,49,020,27,19,49,075,28,51,48,227,33*71
1508595324 - $GPGSV,3,2,12,12,42,308,25,05,38,205,37,17,34,096,33,09,15,081,18*7C
1508595324 - $GPGSV,3,3,12,25,08,322,14,24,06,252,16,23,03,054,16,28,03,155,15*79
1508595324 - $GPRMC,141521.000,A,2615.8128,N,08134.6290,W,0.03,212.72,211017,,,D*78
1508595324 - $GPRMC,141522.000,A,2615.8128,N,08134.6290,W,0.02,156.44,211017,,,D*7C
1508595324 - $GPRMC,141523.000,A,2615.8128,N,08134.6290,W,0.01,163.07,211017,,,D*7F
1508595324 - $GPVTG,163.07,T,,M,0.01,N,0.02,K,D*38
1508595324 - POWER - 2017-10-21, 14:15:24, 433000000, 434000000, 1000000.00, 122, -0.80, -0.80
1508595325 - 
1508595325 - 
1508595325 - ,0000*55
1508595325 - ,0000*55
1508595325 - ,0000*55
1508595325 - ,0000*55
1508595325 - ,0000*55
1508595325 - ,0000*57
1508595325 - ,0000*57
1508595325 - ,0000*57
1508595325 - ,0000*57
1508595325 - 4,211017,,,D*7C
1508595325 - 6290,W,0.02,156.44,211017,,,D*7C
1508595325 - 6290,W,0.02,156.44,211017,,,D*7C
1508595325 - 6290,W,0.03,220.57,211017,,,D*7F
1508595325 - 6290,W,0.03,220.57,211017,,,D*7F
1508595325 - 6290,W,0.03,220.57,211017,,,D*7F
1508595325 - 6,M,-27.7,M,0000,0000*57
1508595325 - $GPGGA,141520.000,2615.8128,N,08134.6290,W,2,07,1.25,1.6,M,-27.7,M,0000,0000*57
1508595325 - $GPGGA,141524.000,2615.8128,N,08134.6290,W,2,07,1.25,1.6,M,-27.7,M,0000,0000*53
1508595325 - $GPGSA,A,3,02,05,17,06,12,19,09,,,,,,3.09,1.25,2.83*02
1508595325 - $GPGSA,A,3,02,05,17,06,12,19,09,,,,,,3.09,1.25,2.83*02
1508595325 - $GPGSA,A,3,02,05,17,06,12,19,09,,,,,,3.09,1.25,2.83*02
1508595325 - $GPRMC,141519.000,A,2615.8128,N,08134.6290,W,0.03,123.72,211017,,,D*72
1508595325 - $GPRMC,141520.000,A,2615.8128,N,08134.6290,W,0.03,220.57,211017,,,D*7F
1508595325 - $GPVTG,109.89,T,,M,0.01,N,0.02,K,D*32
1508595325 - $GPVTG,123.72,T,,M,0.03,N,0.05,K,D*3B
1508595325 - $GPVTG,156.44,T,,M,0.02,N,0.04,K,D*3C
1508595325 - $GPVTG,212.72,T,,M,0.03,N,0.05,K,D*3A
1508595325 - $GPVTG,220.57,T,,M,0.03,N,0.05,K,D*3C
1508595325 - POWER - 2017-10-21, 14:15:25, 433000000, 434000000, 1000000.00, 122, -0.87, -0.87
1508595326 - 
1508595326 - 
1508595326 - 00,0000*54
1508595326 - 00,0000*54
1508595326 - 00,0000*54
1508595326 - ,0000*54
1508595326 - ,0000*54
1508595326 - 6290,W,0.01,163.07,211017,,,D*7F
1508595326 - 6,M,-27.7,M,0000,0000*54
1508595326 - 6,M,-27.7,M,0000,0000*56
1508595326 - $GPGGA,141519.000,2615.8128,N,08134.6290,W,2,07,1.25,1.6,M,-27.7,M,0000,0000*5D
1508595326 - $GPGGA,141521.000,2615.8128,N,08134.6290,W,2,07,1.25,1.6,M,-27.7,M,0000,0000*56
1508595326 - $GPGGA,141523.000,2615.8128,N,08134.6290,W,2,07,1.25,1.6,M,-27.7,M,0000,0000*54
1508595326 - $GPGSA,A,3,02,05,17,06,12,19,09,,,,,,3.09,1.25,2.83*02
1508595326 - $GPGSA,A,3,02,05,17,06,12,19,09,,,,,,3.09,1.25,2.83*02
1508595326 - $GPGSV,3,1,12,02,53,312,30,06,49,020,27,19,49,075,28,51,48,227,33*71
1508595326 - $GPGSV,3,2,12,12,42,308,25,05,38,205,37,17,34,096,33,09,15,081,18*7C
1508595326 - $GPGSV,3,3,12,25,08,322,14,24,06,252,16,23,03,054,16,28,03,155,15*79
1508595326 - $GPRMC,141523.000,A,2615.8128,N,08134.6290,W,0.01,163.07,211017,,,D*7F
1508595326 - $GPRMC,141524.000,A,2615.8128,N,08134.6290,W,0.02,127.14,211017,,,D*79
1508595326 - $GPVTG,127.14,T,,M,0.02,N,0.03,K,D*38
1508595326 - $GPVTG,163.07,T,,M,0.01,N,0.02,K,D*38
1508595326 - POWER - 2017-10-21, 14:15:26, 433000000, 434000000, 1000000.00, 122, -0.85, -0.85
1508595327 - 
1508595327 - 
1508595327 - 
1508595327 - 
1508595327 - ,0000*54
1508595327 - 4,211017,,,D*7C
1508595327 - 6290,W,0.02,156.44,211017,,,D*7C
1508595327 - 6290,W,0.02,156.44,211017,,,D*7C
1508595327 - 6,M,-27.7,M,0000,0000*57
1508595327 - $GPGGA,141520.000,2615.8128,N,08134.6290,W,2,07,1.25,1.6,M,-27.7,M,0000,0000*57
1508595327 - $GPGGA,141522.000,2615.8128,N,08134.6290,W,2,07,1.25,1.6,M,-27.7,M,0000,0000*55
1508595327 - $GPGGA,141525.000,2615.8128,N,08134.6290,W,2,07,1.25,1.6,M,-27.7,M,0000,0000*52
1508595327 - $GPGSA,A,3,02,05,17,06,12,19,09,,,,,,3.09,1.25,2.83*02
1508595327 - $GPGSA,A,3,02,05,17,06,12,19,09,,,,,,3.09,1.25,2.83*02
1508595327 - $GPGSA,A,3,02,05,17,06,12,19,09,,,,,,3.09,1.25,2.83*02
1508595327 - $GPGSA,A,3,02,05,17,06,12,19,09,,,,,,3.09,1.25,2.83*02
1508595327 - $GPRMC,141519.000,A,2615.8128,N,08134.6290,W,0.03,123.72,211017,,,D*72
1508595327 - $GPRMC,141521.000,A,2615.8128,N,08134.6290,W,0.03,212.72,211017,,,D*78
1508595327 - ÿÿÿÿÿÿÿ$GPRMC,141522.000,A,2615.8128,N,08134.6290,W,0.02,156.44,211017,,,D*7C
1508595327 - $GPRMC,141525.000,A,2615.8128,N,08134.6290,W,0.02,103.63,211017,,,D*7E
1508595327 - $GPVTG,103.63,T,,M,0.02,N,0.04,K,D*39
1508595327 - $GPVTG,156.44,T,,M,0.02,N,0.04,K,D*3C
1508595327 - $GPVTG,212.72,T,,M,0.03,N,0.05,K,D*3A
1508595327 - POWER - 2017-10-21, 14:15:27, 433000000, 434000000, 1000000.00, 122, -0.92, -0.92
1508595328 - 
1508595328 - 
1508595328 - 
1508595328 - 
1508595328 - ,0000*53
1508595328 - ,0000*53
1508595328 - ,0000*57
1508595328 - ,0000*57
1508595328 - ,0000*57
1508595328 - ,0000*57
1508595328 - 6290,W,0.02,127.14,211017,,,D*79
1508595328 - 6290,W,0.03,220.57,211017,,,D*7F
1508595328 - 6290,W,0.03,220.57,211017,,,D*7F
1508595328 - 6290,W,0.03,220.57,211017,,,D*7F
1508595328 - 6,M,-27.7,M,0000,0000*53
1508595328 - $GPGGA,141524.000,2615.8128,N,08134.6290,W,2,07,1.25,1.6,M,-27.7,M,0000,0000*53
1508595328 - $GPGGA,141526.000,2615.8128,N,08134.6290,W,2,07,1.25,1.6,M,-27.7,M,0000,0000*51
1508595328 - $GPGSA,A,3,02,05,17,06,12,19,09,,,,,,3.09,1.25,2.83*02
1508595328 - $GPGSA,A,3,02,05,17,06,12,19,09,,,,,,3.09,1.25,2.83*02
1508595328 - $GPRMC,141520.000,A,2615.8128,N,08134.6290,W,0.03,220.57,211017,,,D*7F
1508595328 - $GPRMC,141524.000,A,2615.8128,N,08134.6290,W,0.02,127.14,211017,,,D*79
1508595328 - $GPRMC,141526.000,A,2615.8128,N,08134.6290,W,0.00,144.77,211017,,,D*79
1508595328 - $GPVTG,109.89,T,,M,0.01,N,0.02,K,D*32
1508595328 - $GPVTG,123.72,T,,M,0.03,N,0.05,K,D*3B
1508595328 - $GPVTG,127.14,T,,M,0.02,N,0.03,K,D*38
1508595328 - $GPVTG,144.77,T,,M,0.00,N,0.01,K,D*38
1508595328 - $GPVTG,220.57,T,,M,0.03,N,0.05,K,D*3C
1508595328 - POWER - 2017-10-21, 14:15:28, 433000000, 434000000, 1000000.00, 122, -0.98, -0.98
1508595329 - 
1508595329 - 
1508595329 - 
1508595329 - 
1508595329 - 00,0000*54
1508595329 - 00,0000*54
1508595329 - 00,0000*54
1508595329 - 6,M,-27.7,M,0000,0000*54
1508595329 - $GPGGA,141519.000,2615.8128,N,08134.6290,W,2,07,1.25,1.6,M,-27.7,M,0000,0000*5D
1508595329 - $GPGGA,141521.000,2615.8128,N,08134.6290,W,2,07,1.25,1.6,M,-27.7,M,0000,0000*56
1508595329 - –Ž€$GPGGA,141527.000,2615.8128,N,08134.6290,W,2,07,1.25,1.6,M,-27.7,M,0000,0000*50
1508595329 - $GPGSA,A,3,02,05,17,06,12,19,09,,,,,,3.09,1.25,2.83*02
1508595329 - $GPGSA,A,3,02,05,17,06,12,19,09,,,,,,3.09,1.25,2.83*02
1508595329 - –Ž€$GPGSA,A,3,02,05,17,06,12,19,09,,,,,,3.09,1.25,2.83*02
1508595329 - –Ž€$GPGSV,3,1,12,02,53,312,30,06,49,020,27,19,49,075,28,51,48,227,33*71
1508595329 - –Ž€$GPGSV,3,2,12,12,42,308,25,05,38,205,37,17,34,096,33,09,15,081,18*7C
1508595329 - –Ž€$GPGSV,3,3,12,25,08,322,14,24,06,252,16,23,03,054,16,28,03,155,15*79
1508595329 - $GPRMC,141523.000,A,2615.8128,N,08134.6290,W,0.01,163.07,211017,,,D*7F
1508595329 - $GPRMC,141527.000,A,2615.8128,N,08134.6290,W,0.01,230.39,211017,,,D*73
1508595329 - $GPVTG,230.39,T,,M,0.01,N,0.01,K,D*33
1508595329 - &L‘"–Ž€$GPGGA,141523.000,2615.8128,N,08134.6290,W,2,07,1.25,1.6,M,-27.7,M,0000,0000*54
1508595329 - POWER - 2017-10-21, 14:15:29, 433000000, 434000000, 1000000.00, 122, -0.93, -0.93
1508595330 - ,0000*52
1508595330 - ,0000*52
1508595330 - ,0000*52
1508595330 - ,0000*52
1508595330 - ,0000*52
1508595330 - ,0000*52
1508595330 - ,0000*52
1508595330 - 3,211017,,,D*7E
1508595330 - 4,211017,,,D*7C
1508595330 - 6290,W,0.01,163.07,211017,,,D*7F
1508595330 - 6290,W,0.02,103.63,211017,,,D*7E
1508595330 - 6290,W,0.02,156.44,211017,,,D*7C
1508595330 - 6290,W,0.02,156.44,211017,,,D*7C
1508595330 - 6,M,-27.7,M,0000,0000*52
1508595330 - $GPGGA,141522.000,2615.8128,N,08134.6290,W,2,07,1.25,1.6,M,-27.7,M,0000,0000*55
1508595330 - $GPGGA,141525.000,2615.8128,N,08134.6290,W,2,07,1.25,1.6,M,-27.7,M,0000,0000*52
1508595330 - $GPGSA,A,3,02,05,17,06,12,19,09,,,,,,3.09,1.25,2.83*02
1508595330 - $GPGSA,A,3,02,05,17,06,12,19,09,,,,,,3.09,1.25,2.83*02
1508595330 - $GPGSA,A,3,02,05,17,06,12,19,09,,,,,,3.09,1.25,2.83*02
1508595330 - $GPRMC,141521.000,A,2615.8128,N,08134.6290,W,0.03,212.72,211017,,,D*78
1508595330 - $GPRMC,141522.000,A,2615.8128,N,08134.6290,W,0.02,156.44,211017,,,D*7C
1508595330 - $GPRMC,141525.000,A,2615.8128,N,08134.6290,W,0.02,103.63,211017,,,D*7E
1508595330 - $GPVTG,103.63,T,,M,0.02,N,0.04,K,D*39
1508595330 - $GPVTG,156.44,T,,M,0.02,N,0.04,K,D*3C
1508595330 - $GPVTG,163.07,T,,M,0.01,N,0.02,K,D*38
1508595330 - $GPVTG,212.72,T,,M,0.03,N,0.05,K,D*3A
1508595330 - POWER - 2017-10-21, 14:15:30, 433000000, 434000000, 1000000.00, 122, -0.98, -0.98
1508595331 - 
1508595331 - 
1508595331 - 
1508595331 - 
1508595331 - 
1508595331 - 
1508595331 - 
1508595331 - ,0000*57
1508595331 - ,0000*57
1508595331 - ,0000*57
1508595331 - 6290,W,0.03,220.57,211017,,,D*7F
1508595331 - 6290,W,0.03,220.57,211017,,,D*7F
1508595331 - 6,M,-27.7,M,0000,0000*57
1508595331 - $GPGGA,141520.000,2615.8128,N,08134.6290,W,2,07,1.25,1.6,M,-27.7,M,0000,0000*57
1508595331 - $GPGGA,141528.000,2615.8128,N,08134.6290,W,2,07,1.25,1.6,M,-27.7,M,0000,0000*5F
1508595331 - $GPGSA,A,3,02,05,17,06,12,19,09,,,,,,3.09,1.25,2.83*02
1508595331 - $GPGSA,A,3,02,05,17,06,12,19,09,,,,,,3.09,1.25,2.83*02
1508595331 - $GPGSV,3,1,12,02,53,312,29,06,49,020,26,19,49,075,29,51,48,227,33*79
1508595331 - $GPGSV,3,2,12,12,42,307,27,05,38,205,36,17,34,096,34,09,15,081,19*76
1508595331 - $GPGSV,3,3,12,25,08,322,15,24,06,252,17,23,03,054,15,28,03,155,14*7B
1508595331 - $GPRMC,141519.000,A,2615.8128,N,08134.6290,W,0.03,123.72,211017,,,D*72
1508595331 - $GPRMC,141520.000,A,2615.8128,N,08134.6290,W,0.03,220.57,211017,,,D*7F
1508595331 - $GPRMC,141528.000,A,2615.8128,N,08134.6290,W,0.01,33.79,211017,,,D*49
1508595331 - $GPVTG,109.89,T,,M,0.01,N,0.02,K,D*32
1508595331 - $GPVTG,123.72,T,,M,0.03,N,0.05,K,D*3B
1508595331 - $GPVTG,220.57,T,,M,0.03,N,0.05,K,D*3C
1508595331 - $GPVTG,33.79,T,,M,0.01,N,0.02,K,D*05
1508595331 - POWER - 2017-10-21, 14:15:31, 433000000, 434000000, 1000000.00, 122, -1.03, -1.03
1508595332 - 
1508595332 - 
1508595332 - 
1508595332 - 
1508595332 - ,0000*51
1508595332 - ,0000*51
1508595332 - ,0000*57
1508595332 - 6290,W,0.00,144.77,211017,,,D*79
1508595332 - 6290,W,0.02,127.14,211017,,,D*79
1508595332 - 6290,W,0.03,220.57,211017,,,D*7F
1508595332 - 6,M,-27.7,M,0000,0000*51
1508595332 - 6,M,-27.7,M,0000,0000*53
1508595332 - $GPGGA,141524.000,2615.8128,N,08134.6290,W,2,07,1.25,1.6,M,-27.7,M,0000,0000*53
1508595332 - $GPGGA,141526.000,2615.8128,N,08134.6290,W,2,07,1.25,1.6,M,-27.7,M,0000,0000*51
1508595332 - $GPGGA,141529.000,2615.8128,N,08134.6290,W,2,07,1.25,1.6,M,-27.7,M,0000,0000*5E
1508595332 - $GPGSA,A,3,02,05,17,06,12,19,09,,,,,,3.09,1.25,2.83*02
1508595332 - $GPGSA,A,3,02,05,17,06,12,19,09,,,,,,3.09,1.25,2.83*02
1508595332 - $GPGSA,A,3,02,05,17,06,12,19,09,,,,,,3.09,1.25,2.83*02
1508595332 - $GPRMC,141524.000,A,2615.8128,N,08134.6290,W,0.02,127.14,211017,,,D*79
1508595332 - $GPRMC,141526.000,A,2615.8128,N,08134.6290,W,0.00,144.77,211017,,,D*79
1508595332 - $GPRMC,141529.000,A,2615.8128,N,08134.6290,W,0.01,191.24,211017,,,D*79
1508595332 - $GPVTG,127.14,T,,M,0.02,N,0.03,K,D*38
1508595332 - $GPVTG,144.77,T,,M,0.00,N,0.01,K,D*38
1508595332 - $GPVTG,191.24,T,,M,0.01,N,0.02,K,D*34
1508595332 - POWER - 2017-10-21, 14:15:32, 433000000, 434000000, 1000000.00, 122, -1.08, -1.08
1508595333 - 
1508595333 - 
1508595333 - 
1508595333 - 
1508595333 - 00,0000*54
1508595333 - 00,0000*54
1508595333 - 00,0000*54
1508595333 - 6,M,-27.7,M,0000,0000*54
1508595333 - 6,M,-27.7,M,0000,0000*56
1508595333 - $GPGGA,141519.000,2615.8128,N,08134.6290,W,2,07,1.25,1.6,M,-27.7,M,0000,0000*5D
1508595333 - $GPGGA,141521.000,2615.8128,N,08134.6290,W,2,07,1.25,1.6,M,-27.7,M,0000,0000*56
1508595333 - $GPGGA,141523.000,2615.8128,N,08134.6290,W,2,07,1.25,1.6,M,-27.7,M,0000,0000*54
1508595333 - $GPGGA,141527.000,2615.8128,N,08134.6290,W,2,07,1.25,1.6,M,-27.7,M,0000,0000*50
1508595333 - $GPGGA,141530.000,2615.8128,N,08134.6290,W,2,07,1.25,1.6,M,-27.7,M,0000,0000*56
1508595333 - $GPGSA,A,3,02,05,17,06,12,19,09,,,,,,3.09,1.25,2.83*02
1508595333 - $GPGSA,A,3,02,05,17,06,12,19,09,,,,,,3.09,1.25,2.83*02
1508595333 - $GPGSA,A,3,02,05,17,06,12,19,09,,,,,,3.09,1.25,2.83*02
1508595333 - $GPGSV,3,1,12,02,53,312,30,06,49,020,27,19,49,075,28,51,48,227,33*71
1508595333 - $GPGSV,3,2,12,12,42,308,25,05,38,205,37,17,34,096,33,09,15,081,18*7C
1508595333 - $GPGSV,3,3,12,25,08,322,14,24,06,252,16,23,03,054,16,28,03,155,15*79
1508595333 - $GPRMC,141530.000,A,2615.8128,N,08134.6290,W,0.02,172.86,211017,,,D*77
1508595333 - $GPVTG,172.86,T,,M,0.02,N,0.03,K,D*33
1508595333 - POWER - 2017-10-21, 14:15:33, 433000000, 434000000, 1000000.00, 122, -1.10, -1.10
1508595334 - ,0000*50
1508595334 - ,0000*50
1508595334 - ,0000*50
1508595334 - ,0000*50
1508595334 - ,0000*50
1508595334 - ,0000*52
1508595334 - ,0000*52
1508595334 - ,0000*52
1508595334 - 3,211017,,,D*7E
1508595334 - 6290,W,0.01,163.07,211017,,,D*7F
1508595334 - 6290,W,0.01,230.39,211017,,,D*73
1508595334 - 6290,W,0.02,103.63,211017,,,D*7E
1508595334 - 6,M,-27.7,M,0000,0000*50
1508595334 - 6,M,-27.7,M,0000,0000*52
1508595334 - $GPGGA,141522.000,2615.8128,N,08134.6290,W,2,07,1.25,1.6,M,-27.7,M,0000,0000*55
1508595334 - $GPGGA,141525.000,2615.8128,N,08134.6290,W,2,07,1.25,1.6,M,-27.7,M,0000,0000*52
1508595334 - $GPGSA,A,3,02,05,17,06,12,19,09,,,,,,3.09,1.25,2.83*02
1508595334 - $GPGSA,A,3,02,05,17,06,12,19,09,,,,,,3.09,1.25,2.83*02
1508595334 - $GPGSA,A,3,02,05,17,06,12,19,09,,,,,,3.09,1.25,2.83*02
1508595334 - $GPRMC,141521.000,A,2615.8128,N,08134.6290,W,0.03,212.72,211017,,,D*78
1508595334 - $GPRMC,141523.000,A,2615.8128,N,08134.6290,W,0.01,163.07,211017,,,D*7F
1508595334 - $GPRMC,141525.000,A,2615.8128,N,08134.6290,W,0.02,103.63,211017,,,D*7E
1508595334 - $GPRMC,141527.000,A,2615.8128,N,08134.6290,W,0.01,230.39,211017,,,D*73
1508595334 - $GPVTG,103.63,T,,M,0.02,N,0.04,K,D*39
1508595334 - $GPVTG,163.07,T,,M,0.01,N,0.02,K,D*38
1508595334 - $GPVTG,230.39,T,,M,0.01,N,0.01,K,D*33
1508595334 - POWER - 2017-10-21, 14:15:34, 433000000, 434000000, 1000000.00, 123, -1.01, -1.01
1508595335 - 
1508595335 - 
1508595335 - 
1508595335 - 
1508595335 - 00,0000*5F
1508595335 - 00,0000*5F
1508595335 - 00,0000*5F
1508595335 - 4,211017,,,D*7C
1508595335 - 6290,W,0.02,156.44,211017,,,D*7C
1508595335 - 6290,W,0.02,156.44,211017,,,D*7C
1508595335 - 6,M,-27.7,M,0000,0000*5F
1508595335 - $GPGGA,141528.000,2615.8128,N,08134.6290,W,2,07,1.25,1.6,M,-27.7,M,0000,0000*5F
1508595335 - $GPGGA,141531.000,2615.8128,N,08134.6290,W,2,07,1.25,1.6,M,-27.7,M,0000,0000*57
1508595335 - $GPGSA,A,3,02,05,17,06,12,19,09,,,,,,3.09,1.25,2.83*02
1508595335 - $GPGSA,A,3,02,05,17,06,12,19,09,,,,,,3.09,1.25,2.83*02
1508595335 - $GPGSA,A,3,02,05,17,06,12,19,09,,,,,,3.09,1.25,2.83*02
1508595335 - $GPGSV,3,1,12,02,53,312,29,06,49,020,26,19,49,075,29,51,48,227,33*79
1508595335 - $GPGSV,3,2,12,12,42,307,27,05,38,205,36,17,34,096,34,09,15,081,19*76
1508595335 - $GPGSV,3,3,12,25,08,322,15,24,06,252,17,23,03,054,15,28,03,155,14*7B
1508595335 - $GPRMC,141522.000,A,2615.8128,N,08134.6290,W,0.02,156.44,211017,,,D*7C
1508595335 - $GPRMC,141531.000,A,2615.8128,N,08134.6290,W,0.02,143.53,211017,,,D*7C
1508595335 - $GPVTG,143.53,T,,M,0.02,N,0.04,K,D*3E
1508595335 - $GPVTG,156.44,T,,M,0.02,N,0.04,K,D*3C
1508595335 - $GPVTG,212.72,T,,M,0.03,N,0.05,K,D*3A
1508595335 - POWER - 2017-10-21, 14:15:35, 433000000, 434000000, 1000000.00, 122, -1.08, -1.08
1508595336 - 
1508595336 - 
1508595336 - 
1508595336 - 
1508595336 - 0,0000*5F
1508595336 - 0,0000*5F
1508595336 - ,0000*5F
1508595336 - .6290,W,0.01,33.79,211017,,,D*49
1508595336 - 6290,W,0.03,220.57,211017,,,D*7F
1508595336 - 6290,W,0.03,220.57,211017,,,D*7F
1508595336 - 6290,W,0.03,220.57,211017,,,D*7F
1508595336 - $GPGGA,141520.000,2615.8128,N,08134.6290,W,2,07,1.25,1.6,M,-27.7,M,0000,0000*57
1508595336 - $GPGGA,141532.000,2615.8128,N,08134.6290,W,2,07,1.25,1.6,M,-27.7,M,0000,0000*54
1508595336 - $GPGSA,A,3,02,05,17,06,12,19,09,,,,,,3.09,1.25,2.83*02
1508595336 - $GPGSA,A,3,02,05,17,06,12,19,09,,,,,,3.09,1.25,2.83*02
1508595336 - $GPRMC,141519.000,A,2615.8128,N,08134.6290,W,0.03,123.72,211017,,,D*72
1508595336 - ÿÿÿÿÿÿÿ$GPRMC,141520.000,A,2615.8128,N,08134.6290,W,0.03,220.57,211017,,,D*7F
1508595336 - $GPRMC,141528.000,A,2615.8128,N,08134.6290,W,0.01,33.79,211017,,,D*49
1508595336 - $GPRMC,141532.000,A,2615.8128,N,08134.6290,W,0.01,283.21,211017,,,D*76
1508595336 - $GPVTG,109.89,T,,M,0.01,N,0.02,K,D*32
1508595336 - $GPVTG,123.72,T,,M,0.03,N,0.05,K,D*3B
1508595336 - $GPVTG,220.57,T,,M,0.03,N,0.05,K,D*3C
1508595336 - $GPVTG,283.21,T,,M,0.01,N,0.02,K,D*31
1508595336 - $GPVTG,33.79,T,,M,0.01,N,0.02,K,D*05
1508595336 - POWER - 2017-10-21, 14:15:36, 433000000, 434000000, 1000000.00, 122, -1.09, -1.09
1508595337 - 
1508595337 - 
1508595337 - 
1508595337 - 
1508595337 - 
1508595337 - 
1508595337 - 
1508595337 - ,0000*51
1508595337 - ,0000*51
1508595337 - 6290,W,0.00,144.77,211017,,,D*79
1508595337 - 6,M,-27.7,M,0000,0000*51
1508595337 - 6,M,-27.7,M,0000,0000*53
1508595337 - ‹$GPGGA,141524.000,2615.8128,N,08134.6290,W,2,07,1.25,1.6,M,-27.7,M,0000,0000*53
1508595337 - $GPGGA,141526.000,2615.8128,N,08134.6290,W,2,07,1.25,1.6,M,-27.7,M,0000,0000*51
1508595337 - ‹$GPGGA,141533.000,2615.8128,N,08134.6290,W,2,07,1.25,1.6,M,-27.7,M,0000,0000*55
1508595337 - ‹$GPGSA,A,3,02,05,17,06,12,19,09,,,,,,3.09,1.25,2.83*02
1508595337 - ‹$GPGSA,A,3,02,05,17,06,12,19,09,,,,,,3.09,1.25,2.83*02
1508595337 - $GPGSA,A,3,02,05,17,06,12,19,09,,,,,,3.10,1.25,2.83*0A
1508595337 - $GPGSV,3,1,12,02,53,312,26,06,49,020,29,19,49,075,29,51,48,227,33*79
1508595337 - $GPGSV,3,2,12,12,42,307,29,05,38,205,37,17,34,096,34,09,15,081,19*79
1508595337 - $GPGSV,3,3,12,25,08,322,15,24,06,252,17,23,03,054,15,28,03,155,14*7B
1508595337 - ‹$GPRMC,141526.000,A,2615.8128,N,08134.6290,W,0.00,144.77,211017,,,D*79
1508595337 - $GPRMC,141533.000,A,2615.8128,N,08134.6290,W,0.04,152.26,211017,,,D*7A
1508595337 - ‹$GPVTG,144.77,T,,M,0.00,N,0.01,K,D*38
1508595337 - $GPVTG,152.26,T,,M,0.04,N,0.08,K,D*36
1508595337 - POWER - 2017-10-21, 14:15:37, 433000000, 434000000, 1000000.00, 122, -0.93, -0.93
1508595338 - 00,0000*54
1508595338 - ,0000*5E
1508595338 - ,0000*5E
1508595338 - ,0000*5E
1508595338 - ,0000*5E
1508595338 - 6290,W,0.01,191.24,211017,,,D*79
1508595338 - 6290,W,0.02,127.14,211017,,,D*79
1508595338 - 6,M,-27.7,M,0000,0000*54
1508595338 - 6,M,-27.7,M,0000,0000*56
1508595338 - 6,M,-27.7,M,0000,0000*5E
1508595338 - $GPGGA,141519.000,2615.8128,N,08134.6290,W,2,07,1.25,1.6,M,-27.7,M,0000,0000*5D
1508595338 - $GPGGA,141521.000,2615.8128,N,08134.6290,W,2,07,1.25,1.6,M,-27.7,M,0000,0000*56
1508595338 - $GPGGA,141523.000,2615.8128,N,08134.6290,W,2,07,1.25,1.6,M,-27.7,M,0000,0000*54
1508595338 - $GPGGA,141529.000,2615.8128,N,08134.6290,W,2,07,1.25,1.6,M,-27.7,M,0000,0000*5E
1508595338 - $GPGSA,A,3,02,05,17,06,12,19,09,,,,,,3.09,1.25,2.83*02
1508595338 - $GPGSA,A,3,02,05,17,06,12,19,09,,,,,,3.09,1.25,2.83*02
1508595338 - $GPGSA,A,3,02,05,17,06,12,19,09,,,,,,3.09,1.25,2.83*02
1508595338 - $GPGSV,3,1,12,02,53,312,30,06,49,020,27,19,49,075,28,51,48,227,33*71
1508595338 - $GPGSV,3,2,12,12,42,308,25,05,38,205,37,17,34,096,33,09,15,081,18*7C
1508595338 - $GPRMC,141524.000,A,2615.8128,N,08134.6290,W,0.02,127.14,211017,,,D*79
1508595338 - $GPRMC,141529.000,A,2615.8128,N,08134.6290,W,0.01,191.24,211017,,,D*79
1508595338 - $GPVTG,127.14,T,,M,0.02,N,0.03,K,D*38
1508595338 - $GPVTG,191.24,T,,M,0.01,N,0.02,K,D*34
1508595338 - POWER - 2017-10-21, 14:15:38, 433000000, 434000000, 1000000.00, 122, -0.78, -0.78
1508595339 - 
1508595339 - 
1508595339 - 
1508595339 - 
1508595339 - 00,0000*54
1508595339 - ,0000*50
1508595339 - ,0000*56
1508595339 - ,0000*56
1508595339 - 6290,W,0.02,172.86,211017,,,D*77
1508595339 - 6,M,-27.7,M,0000,0000*50
1508595339 - 6,M,-27.7,M,0000,0000*56
1508595339 - $GPGGA,141527.000,2615.8128,N,08134.6290,W,2,07,1.25,1.6,M,-27.7,M,0000,0000*50
1508595339 - $GPGGA,141530.000,2615.8128,N,08134.6290,W,2,07,1.25,1.6,M,-27.7,M,0000,0000*56
1508595339 - $GPGGA,141534.000,2615.8128,N,08134.6290,W,2,07,1.25,1.6,M,-27.7,M,0000,0000*52
1508595339 - $GPGSA,A,3,02,05,17,06,12,19,09,,,,,,3.09,1.25,2.83*02
1508595339 - $GPGSA,A,3,02,05,17,06,12,19,09,,,,,,3.09,1.25,2.83*02
1508595339 - $GPGSA,A,3,02,05,17,06,12,19,09,,,,,,3.09,1.25,2.83*02
1508595339 - $GPGSV,3,3,12,25,08,322,14,24,06,252,16,23,03,054,16,28,03,155,15*79
1508595339 - $GPRMC,141527.000,A,2615.8128,N,08134.6290,W,0.01,230.39,211017,,,D*73
1508595339 - $GPRMC,141530.000,A,2615.8128,N,08134.6290,W,0.02,172.86,211017,,,D*77
1508595339 - $GPRMC,141534.000,A,2615.8128,N,08134.6290,W,0.01,179.07,211017,,,D*72
1508595339 - $GPVTG,172.86,T,,M,0.02,N,0.03,K,D*33
1508595339 - $GPVTG,179.07,T,,M,0.01,N,0.01,K,D*30
1508595339 - $GPVTG,230.39,T,,M,0.01,N,0.01,K,D*33
1508595339 - POWER - 2017-10-21, 14:15:39, 433000000, 434000000, 1000000.00, 122, -0.91, -0.91
1508595340 - 
1508595340 - 
1508595340 - 
1508595340 - 
1508595340 - ,0000*50
1508595340 - ,0000*50
1508595340 - ,0000*50
1508595340 - ,0000*50
1508595340 - ,0000*52
1508595340 - ,0000*52
1508595340 - 6290,W,0.01,163.07,211017,,,D*7F
1508595340 - 6290,W,0.01,230.39,211017,,,D*73
1508595340 - 6290,W,0.02,103.63,211017,,,D*7E
1508595340 - 6,M,-27.7,M,0000,0000*52
1508595340 - $GPGGA,141522.000,2615.8128,N,08134.6290,W,2,07,1.25,1.6,M,-27.7,M,0000,0000*55
1508595340 - $GPGGA,141525.000,2615.8128,N,08134.6290,W,2,07,1.25,1.6,M,-27.7,M,0000,0000*52
1508595340 - $GPGGA,141535.000,2615.8128,N,08134.6290,W,2,07,1.25,1.6,M,-27.7,M,0000,0000*53
1508595340 - $GPGSA,A,3,02,05,17,06,12,19,09,,,,,,3.09,1.25,2.83*02
1508595340 - $GPGSA,A,3,02,05,17,06,12,19,09,,,,,,3.10,1.25,2.83*0A
1508595340 - $GPRMC,141521.000,A,2615.8128,N,08134.6290,W,0.03,212.72,211017,,,D*78
1508595340 - $GPRMC,141523.000,A,2615.8128,N,08134.6290,W,0.01,163.07,211017,,,D*7F
1508595340 - $GPRMC,141525.000,A,2615.8128,N,08134.6290,W,0.02,103.63,211017,,,D*7E
1508595340 - $GPRMC,141535.000,A,2615.8128,N,08134.6290,W,0.01,186.22,211017,,,D*74
1508595340 - $GPVTG,103.63,T,,M,0.02,N,0.04,K,D*39
1508595340 - $GPVTG,163.07,T,,M,0.01,N,0.02,K,D*38
1508595340 - $GPVTG,186.22,T,,M,0.01,N,0.02,K,D*34
1508595340 - POWER - 2017-10-21, 14:15:40, 433000000, 434000000, 1000000.00, 122, -1.10, -1.10
1508595341 - 
1508595341 - 
1508595341 - 
1508595341 - 
1508595341 - ,0000*52
1508595341 - ,0000*57
1508595341 - ,0000*57
1508595341 - ,0000*57
1508595341 - ,0000*57
1508595341 - ,0000*57
1508595341 - 3,211017,,,D*7E
1508595341 - 6290,W,0.02,143.53,211017,,,D*7C
1508595341 - 6290,W,0.02,156.44,211017,,,D*7C
1508595341 - 6290,W,0.02,156.44,211017,,,D*7C
1508595341 - 6,M,-27.7,M,0000,0000*57
1508595341 - $GPGGA,141531.000,2615.8128,N,08134.6290,W,2,07,1.25,1.6,M,-27.7,M,0000,0000*57
1508595341 - $GPGGA,141536.000,2615.8128,N,08134.6290,W,2,07,1.25,1.6,M,-27.7,M,0000,0000*50
1508595341 - $GPGSA,A,3,02,05,17,06,12,19,09,,,,,,3.09,1.25,2.83*02
1508595341 - $GPGSA,A,3,02,05,17,06,12,19,09,,,,,,3.09,1.25,2.83*02
1508595341 - $GPGSA,A,3,02,05,17,06,12,19,09,,,,,,3.09,1.25,2.83*02
1508595341 - $GPGSA,A,3,02,05,17,06,12,19,09,,,,,,3.10,1.25,2.83*0A
1508595341 - $GPRMC,141522.000,A,2615.8128,N,08134.6290,W,0.02,156.44,211017,,,D*7C
1508595341 - $GPRMC,141531.000,A,2615.8128,N,08134.6290,W,0.02,143.53,211017,,,D*7C
1508595341 - $GPRMC,141536.000,A,2615.8128,N,08134.6290,W,0.04,173.15,211017,,,D*7C
1508595341 - $GPVTG,143.53,T,,M,0.02,N,0.04,K,D*3E
1508595341 - $GPVTG,156.44,T,,M,0.02,N,0.04,K,D*3C
1508595341 - $GPVTG,173.15,T,,M,0.04,N,0.07,K,D*3A
1508595341 - $GPVTG,212.72,T,,M,0.03,N,0.05,K,D*3A
1508595341 - POWER - 2017-10-21, 14:15:41, 433000000, 434000000, 1000000.00, 121, -0.75, -0.75
1508595342 - 
1508595342 - 00,0000*5F
1508595342 - 00,0000*5F
1508595342 - 00,0000*5F
1508595342 - 0,0000*5F
1508595342 - 0,0000*5F
1508595342 - ,0000*5F
1508595342 - .6290,W,0.01,33.79,211017,,,D*49
1508595342 - 6,M,-27.7,M,0000,0000*54
1508595342 - 6,M,-27.7,M,0000,0000*5F
1508595342 - $GPGGA,141520.000,2615.8128,N,08134.6290,W,2,07,1.25,1.6,M,-27.7,M,0000,0000*57
1508595342 - ÿÿÿÿÿÿÿ$GPGGA,141528.000,2615.8128,N,08134.6290,W,2,07,1.25,1.6,M,-27.7,M,0000,0000*5F
1508595342 - $GPGGA,141532.000,2615.8128,N,08134.6290,W,2,07,1.25,1.6,M,-27.7,M,0000,0000*54
1508595342 - $GPGGA,141537.000,2615.8128,N,08134.6290,W,2,07,1.25,1.6,M,-27.7,M,0000,0000*51
1508595342 - $GPGSA,A,3,02,05,17,06,12,19,09,,,,,,3.09,1.25,2.83*02
1508595342 - $GPGSA,A,3,02,05,17,06,12,19,09,,,,,,3.09,1.25,2.83*02
1508595342 - $GPGSV,3,1,12,02,53,312,29,06,49,020,26,19,49,075,29,51,48,227,33*79
1508595342 - $GPGSV,3,2,12,12,42,307,27,05,38,205,36,17,34,096,34,09,15,081,19*76
1508595342 - $GPGSV,3,3,12,25,08,322,15,24,06,252,17,23,03,054,15,28,03,155,14*7B
1508595342 - $GPRMC,141519.000,A,2615.8128,N,08134.6290,W,0.03,123.72,211017,,,D*72
1508595342 - $GPRMC,141528.000,A,2615.8128,N,08134.6290,W,0.01,33.79,211017,,,D*49
1508595342 - $GPVTG,33.79,T,,M,0.01,N,0.02,K,D*05
1508595342 - POWER - 2017-10-21, 14:15:42, 433000000, 434000000, 1000000.00, 122, -1.12, -1.12
1508595343 - 
1508595343 - 
1508595343 - 
1508595343 - ,0000*51
1508595343 - 1,211017,,,D*76
1508595343 - 6290,W,0.00,144.77,211017,,,D*79
1508595343 - 6290,W,0.01,283.21,211017,,,D*76
1508595343 - 6290,W,0.03,220.57,211017,,,D*7F
1508595343 - 6290,W,0.03,220.57,211017,,,D*7F
1508595343 - 6290,W,0.03,220.57,211017,,,D*7F
1508595343 - 6,M,-27.7,M,0000,0000*51
1508595343 - $GPGGA,141526.000,2615.8128,N,08134.6290,W,2,07,1.25,1.6,M,-27.7,M,0000,0000*51
1508595343 - $GPGSA,A,3,02,05,17,06,12,19,09,,,,,,3.09,1.25,2.83*02
1508595343 - $GPGSA,A,3,02,05,17,06,12,19,09,,,,,,3.09,1.25,2.83*02
1508595343 - $GPGSA,A,3,02,05,17,06,12,19,09,,,,,,3.10,1.25,2.83*0A
1508595343 - $GPRMC,141520.000,A,2615.8128,N,08134.6290,W,0.03,220.57,211017,,,D*7F
1508595343 - $GPRMC,141526.000,A,2615.8128,N,08134.6290,W,0.00,144.77,211017,,,D*79
1508595343 - $GPRMC,141532.000,A,2615.8128,N,08134.6290,W,0.01,283.21,211017,,,D*76
1508595343 - $GPRMC,141537.000,A,2615.8128,N,08134.6290,W,0.01,158.89,211017,,,D*74
1508595343 - $GPVTG,109.89,T,,M,0.01,N,0.02,K,D*32
1508595343 - $GPVTG,123.72,T,,M,0.03,N,0.05,K,D*3B
1508595343 - $GPVTG,144.77,T,,M,0.00,N,0.01,K,D*38
1508595343 - $GPVTG,158.89,T,,M,0.01,N,0.02,K,D*36
1508595343 - $GPVTG,220.57,T,,M,0.03,N,0.05,K,D*3C
1508595343 - $GPVTG,283.21,T,,M,0.01,N,0.02,K,D*31
1508595343 - POWER - 2017-10-21, 14:15:43, 433000000, 434000000, 1000000.00, 122, -1.22, -1.22
1508595344 - 
1508595344 - 
1508595344 - 
1508595344 - ,0000*51
1508595344 - 6,M,-27.7,M,0000,0000*53
1508595344 - $GPGGA,141524.000,2615.8128,N,08134.6290,W,2,07,1.25,1.6,M,-27.7,M,0000,0000*53
1508595344 - $GPGGA,141526.000,2615.8128,N,08134.6290,W,2,07,1.25,1.6,M,-27.7,M,0000,0000*51
1508595344 - $GPGGA,141538.000,2615.8128,N,08134.6290,W,2,07,1.25,1.6,M,-27.7,M,0000,0000*5E
1508595344 - $GPGSA,A,3,02,05,17,06,12,19,09,,,,,,3.09,1.25,2.83*02
1508595344 - $GPGSA,A,3,02,05,17,06,12,19,09,,,,,,3.09,1.25,2.83*02
1508595344 - $GPGSA,A,3,02,05,17,06,12,19,09,,,,,,3.10,1.25,2.83*0A
1508595344 - $GPGSV,3,1,12,02,53,312,25,06,49,020,28,19,49,075,29,51,48,227,33*7B
1508595344 - $GPGSV,3,2,1.57,211017,,,D*7F
1508595344 - POWER - 2017-10-21, 14:15:44, 433000000, 434000000, 1000000.00, 122, -1.18, -1.18
1508595344 - y$GPRMC,141526.000,A,2615.8128,N,08134.6290,W,0.00,144.77,211017,,,D*79
1508595345 - POWER - 2017-10-21, 14:15:45, 433000000, 434000000, 1000000.00, 122, -1.28, -1.28
1508595346 - POWER - 2017-10-21, 14:15:46, 433000000, 434000000, 1000000.00, 122, -1.31, -1.31
1508595347 - POWER - 2017-10-21, 14:15:47, 433000000, 434000000, 1000000.00, 122, -1.36, -1.36
1508595348 - POWER - 2017-10-21, 14:15:48, 433000000, 434000000, 1000000.00, 122, -1.40, -1.40
1508595349 - POWER - 2017-10-21, 14:15:49, 433000000, 434000000, 1000000.00, 122, -1.39, -1.39
1508595350 - POWER - 2017-10-21, 14:15:50, 433000000, 434000000, 1000000.00, 122, -1.51, -1.51
1508595351 - POWER - 2017-10-21, 14:15:51, 433000000, 434000000, 1000000.00, 122, -1.51, -1.51
1508595352 - POWER - 2017-10-21, 14:15:52, 433000000, 434000000, 1000000.00, 122, -1.58, -1.58
1508595353 - POWER - 2017-10-21, 14:15:53, 433000000, 434000000, 1000000.00, 122, -1.56, -1.56
1508595354 - POWER - 2017-10-21, 14:15:54, 433000000, 434000000, 1000000.00, 122, -1.48, -1.48
1508595355 - POWER - 2017-10-21, 14:15:55, 433000000, 434000000, 1000000.00, 122, -1.57, -1.57
1508595356 - POWER - 2017-10-21, 14:15:56, 433000000, 434000000, 1000000.00, 122, -1.61, -1.61
1508595357 - POWER - 2017-10-21, 14:15:57, 433000000, 434000000, 1000000.00, 122, -1.42, -1.42
1508595358 - POWER - 2017-10-21, 14:15:58, 433000000, 434000000, 1000000.00, 122, -1.65, -1.65
1508595359 - POWER - 2017-10-21, 14:15:59, 433000000, 434000000, 1000000.00, 122, -1.45, -1.45
1508595360 - POWER - 2017-10-21, 14:16:00, 433000000, 434000000, 1000000.00, 122, -1.74, -1.74
1508595361 - POWER - 2017-10-21, 14:16:01, 433000000, 434000000, 1000000.00, 122, -1.59, -1.59
1508595362 - POWER - 2017-10-21, 14:16:02, 433000000, 434000000, 1000000.00, 122, -1.43, -1.43
1508595363 - POWER - 2017-10-21, 14:16:03, 433000000, 434000000, 1000000.00, 123, -1.64, -1.64
1508595364 - POWER - 2017-10-21, 14:16:04, 433000000, 434000000, 1000000.00, 121, -1.54, -1.54
1508595365 - POWER - 2017-10-21, 14:16:05, 433000000, 434000000, 1000000.00, 122, -1.70, -1.70
1508595366 - POWER - 2017-10-21, 14:16:06, 433000000, 434000000, 1000000.00, 123, -1.44, -1.44
1508595367 - POWER - 2017-10-21, 14:16:07, 433000000, 434000000, 1000000.00, 122, -1.54, -1.54
1508595368 - POWER - 2017-10-21, 14:16:08, 433000000, 434000000, 1000000.00, 122, -1.59, -1.59
1508595369 - POWER - 2017-10-21, 14:16:09, 433000000, 434000000, 1000000.00, 122, -1.67, -1.67
1508595370 - POWER - 2017-10-21, 14:16:10, 433000000, 434000000, 1000000.00, 122, -1.66, -1.66
1508595371 - POWER - 2017-10-21, 14:16:11, 433000000, 434000000, 1000000.00, 122, -1.65, -1.65
1508595372 - POWER - 2017-10-21, 14:16:12, 433000000, 434000000, 1000000.00, 122, -1.78, -1.78
1508595373 - POWER - 2017-10-21, 14:16:13, 433000000, 434000000, 1000000.00, 122, -1.67, -1.67
1508595374 - POWER - 2017-10-21, 14:16:14, 433000000, 434000000, 1000000.00, 122, -1.67, -1.67
1508595375 - POWER - 2017-10-21, 14:16:15, 433000000, 434000000, 1000000.00, 122, -1.70, -1.70
1508595376 - POWER - 2017-10-21, 14:16:16, 433000000, 434000000, 1000000.00, 122, -1.64, -1.64
1508595377 - POWER - 2017-10-21, 14:16:17, 433000000, 434000000, 1000000.00, 122, -1.72, -1.72
1508595378 - POWER - 2017-10-21, 14:16:18, 433000000, 434000000, 1000000.00, 122, -1.72, -1.72
1508595379 - POWER - 2017-10-21, 14:16:19, 433000000, 434000000, 1000000.00, 122, -1.55, -1.55
1508595380 - POWER - 2017-10-21, 14:16:20, 433000000, 434000000, 1000000.00, 122, -1.59, -1.59
1508595381 - POWER - 2017-10-21, 14:16:21, 433000000, 434000000, 1000000.00, 122, -1.84, -1.84
1508595382 - POWER - 2017-10-21, 14:16:22, 433000000, 434000000, 1000000.00, 123, -1.64, -1.64
1508595383 - POWER - 2017-10-21, 14:16:23, 433000000, 434000000, 1000000.00, 122, -1.55, -1.55
1508595384 - POWER - 2017-10-21, 14:16:24, 433000000, 434000000, 1000000.00, 122, -1.63, -1.63
1508595385 - POWER - 2017-10-21, 14:16:25, 433000000, 434000000, 1000000.00, 122, -1.73, -1.73
1508595386 - POWER - 2017-10-21, 14:16:26, 433000000, 434000000, 1000000.00, 122, -1.76, -1.76
1508595387 - POWER - 2017-10-21, 14:16:27, 433000000, 434000000, 1000000.00, 122, -1.84, -1.84
1508595388 - POWER - 2017-10-21, 14:16:28, 433000000, 434000000, 1000000.00, 122, -1.71, -1.71
1508595389 - POWER - 2017-10-21, 14:16:29, 433000000, 434000000, 1000000.00, 122, -1.71, -1.71
1508595390 - POWER - 2017-10-21, 14:16:30, 433000000, 434000000, 1000000.00, 122, -1.74, -1.74
1508595391 - POWER - 2017-10-21, 14:16:31, 433000000, 434000000, 1000000.00, 122, -1.62, -1.62
1508595392 - POWER - 2017-10-21, 14:16:32, 433000000, 434000000, 1000000.00, 122, -1.75, -1.75
1508595393 - POWER - 2017-10-21, 14:16:33, 433000000, 434000000, 1000000.00, 122, -1.91, -1.91
1508595394 - POWER - 2017-10-21, 14:16:34, 433000000, 434000000, 1000000.00, 122, -1.63, -1.63
1508595395 - POWER - 2017-10-21, 14:16:35, 433000000, 434000000, 1000000.00, 122, -1.68, -1.68
1508595396 - POWER - 2017-10-21, 14:16:36, 433000000, 434000000, 1000000.00, 123, -1.79, -1.79
1508595397 - POWER - 2017-10-21, 14:16:37, 433000000, 434000000, 1000000.00, 121, -1.76, -1.76
1508595398 - POWER - 2017-10-21, 14:16:38, 433000000, 434000000, 1000000.00, 122, -1.65, -1.65
1508595399 - POWER - 2017-10-21, 14:16:39, 433000000, 434000000, 1000000.00, 122, -1.22, -1.22
1508595400 - POWER - 2017-10-21, 14:16:40, 433000000, 434000000, 1000000.00, 122, -1.66, -1.66
1508595401 - POWER - 2017-10-21, 14:16:41, 433000000, 434000000, 1000000.00, 123, -1.72, -1.72
1508595402 - POWER - 2017-10-21, 14:16:42, 433000000, 434000000, 1000000.00, 121, -1.73, -1.73
1508595403 - POWER - 2017-10-21, 14:16:43, 433000000, 434000000, 1000000.00, 122, -1.72, -1.72
1508595404 - POWER - 2017-10-21, 14:16:44, 433000000, 434000000, 1000000.00, 122, -1.55, -1.55
1508595405 - POWER - 2017-10-21, 14:16:45, 433000000, 434000000, 1000000.00, 123, -1.61, -1.61
1508595406 - POWER - 2017-10-21, 14:16:46, 433000000, 434000000, 1000000.00, 122, -1.68, -1.68
1508595407 - POWER - 2017-10-21, 14:16:47, 433000000, 434000000, 1000000.00, 122, -1.73, -1.73
1508595408 - POWER - 2017-10-21, 14:16:48, 433000000, 434000000, 1000000.00, 122, -1.64, -1.64
1508595409 - POWER - 2017-10-21, 14:16:49, 433000000, 434000000, 1000000.00, 122, -1.62, -1.62
1508595410 - POWER - 2017-10-21, 14:16:50, 433000000, 434000000, 1000000.00, 122, -1.55, -1.55
1508595411 - POWER - 2017-10-21, 14:16:51, 433000000, 434000000, 1000000.00, 122, -1.62, -1.62
1508595412 - POWER - 2017-10-21, 14:16:52, 433000000, 434000000, 1000000.00, 122, -1.77, -1.77
1508595413 - POWER - 2017-10-21, 14:16:53, 433000000, 434000000, 1000000.00, 122, -1.83, -1.83
1508595414 - POWER - 2017-10-21, 14:16:54, 433000000, 434000000, 1000000.00, 122, -1.66, -1.66
1508595415 - POWER - 2017-10-21, 14:16:55, 433000000, 434000000, 1000000.00, 122, -1.84, -1.84
1508595416 - POWER - 2017-10-21, 14:16:56, 433000000, 434000000, 1000000.00, 122, -1.95, -1.95
1508595417 - POWER - 2017-10-21, 14:16:57, 433000000, 434000000, 1000000.00, 122, -1.77, -1.77
1508595418 - POWER - 2017-10-21, 14:16:58, 433000000, 434000000, 1000000.00, 122, -1.81, -1.81
1508595419 - POWER - 2017-10-21, 14:16:59, 433000000, 434000000, 1000000.00, 122, -1.69, -1.69
1508595420 - POWER - 2017-10-21, 14:17:00, 433000000, 434000000, 1000000.00, 122, -1.96, -1.96
1508595421 - POWER - 2017-10-21, 14:17:01, 433000000, 434000000, 1000000.00, 123, -1.80, -1.80
1508595422 - POWER - 2017-10-21, 14:17:02, 433000000, 434000000, 1000000.00, 122, -1.64, -1.64
1508595423 - POWER - 2017-10-21, 14:17:03, 433000000, 434000000, 1000000.00, 122, -1.87, -1.87
1508595424 - POWER - 2017-10-21, 14:17:04, 433000000, 434000000, 1000000.00, 122, -1.69, -1.69
1508595425 - POWER - 2017-10-21, 14:17:05, 433000000, 434000000, 1000000.00, 122, -1.75, -1.75
1508595426 - POWER - 2017-10-21, 14:17:06, 433000000, 434000000, 1000000.00, 122, -1.64, -1.64
1508595427 - POWER - 2017-10-21, 14:17:07, 433000000, 434000000, 1000000.00, 122, -1.66, -1.66
1508595428 - POWER - 2017-10-21, 14:17:08, 433000000, 434000000, 1000000.00, 122, -1.70, -1.70
1508595429 - POWER - 2017-10-21, 14:17:09, 433000000, 434000000, 1000000.00, 122, -2.03, -2.03
1508595430 - POWER - 2017-10-21, 14:17:10, 433000000, 434000000, 1000000.00, 122, -2.04, -2.04
1508595431 - POWER - 2017-10-21, 14:17:11, 433000000, 434000000, 1000000.00, 122, -2.14, -2.14
1508595432 - POWER - 2017-10-21, 14:17:12, 433000000, 434000000, 1000000.00, 122, -1.72, -1.72
1508595433 - POWER - 2017-10-21, 14:17:13, 433000000, 434000000, 1000000.00, 122, -1.65, -1.65
1508595434 - POWER - 2017-10-21, 14:17:14, 433000000, 434000000, 1000000.00, 122, -1.67, -1.67
1508595435 - POWER - 2017-10-21, 14:17:15, 433000000, 434000000, 1000000.00, 122, -1.84, -1.84
1508595436 - POWER - 2017-10-21, 14:17:16, 433000000, 434000000, 1000000.00, 122, -1.66, -1.66
1508595437 - POWER - 2017-10-21, 14:17:17, 433000000, 434000000, 1000000.00, 122, -1.83, -1.83
1508595438 - POWER - 2017-10-21, 14:17:18, 433000000, 434000000, 1000000.00, 122, -1.79, -1.79
1508595439 - POWER - 2017-10-21, 14:17:19, 433000000, 434000000, 1000000.00, 122, -1.77, -1.77
1508595440 - POWER - 2017-10-21, 14:17:20, 433000000, 434000000, 1000000.00, 122, -1.86, -1.86
1508595441 - POWER - 2017-10-21, 14:17:21, 433000000, 434000000, 1000000.00, 122, -1.69, -1.69
1508595442 - POWER - 2017-10-21, 14:17:22, 433000000, 434000000, 1000000.00, 122, -1.54, -1.54
1508595443 - POWER - 2017-10-21, 14:17:23, 433000000, 434000000, 1000000.00, 122, -1.86, -1.86
1508595444 - POWER - 2017-10-21, 14:17:24, 433000000, 434000000, 1000000.00, 122, -1.93, -1.93
1508595445 - POWER - 2017-10-21, 14:17:25, 433000000, 434000000, 1000000.00, 122, -1.98, -1.98
1508595446 - POWER - 2017-10-21, 14:17:26, 433000000, 434000000, 1000000.00, 122, -1.64, -1.64
1508595447 - POWER - 2017-10-21, 14:17:27, 433000000, 434000000, 1000000.00, 122, -1.78, -1.78
1508595448 - POWER - 2017-10-21, 14:17:28, 433000000, 434000000, 1000000.00, 122, -1.92, -1.92
1508595449 - POWER - 2017-10-21, 14:17:29, 433000000, 434000000, 1000000.00, 122, -1.58, -1.58
1508595450 - POWER - 2017-10-21, 14:17:30, 433000000, 434000000, 1000000.00, 122, -1.72, -1.72
1508595451 - POWER - 2017-10-21, 14:17:31, 433000000, 434000000, 1000000.00, 122, -1.53, -1.53
1508595452 - POWER - 2017-10-21, 14:17:32, 433000000, 434000000, 1000000.00, 122, -1.66, -1.66
1508595453 - POWER - 2017-10-21, 14:17:33, 433000000, 434000000, 1000000.00, 122, -1.76, -1.76
1508595454 - POWER - 2017-10-21, 14:17:34, 433000000, 434000000, 1000000.00, 122, -1.36, -1.36
1508595455 - POWER - 2017-10-21, 14:17:35, 433000000, 434000000, 1000000.00, 119, -1.32, -1.32
1508595456 - POWER - 2017-10-21, 14:17:36, 433000000, 434000000, 1000000.00, 122, -1.35, -1.35
1508595457 - POWER - 2017-10-21, 14:17:37, 433000000, 434000000, 1000000.00, 121, -1.60, -1.60
1508595458 - POWER - 2017-10-21, 14:17:38, 433000000, 434000000, 1000000.00, 122, -1.47, -1.47
1508595459 - POWER - 2017-10-21, 14:17:39, 433000000, 434000000, 1000000.00, 122, -1.73, -1.73
1508595460 - POWER - 2017-10-21, 14:17:40, 433000000, 434000000, 1000000.00, 122, -1.42, -1.42
1508595461 - POWER - 2017-10-21, 14:17:41, 433000000, 434000000, 1000000.00, 122, -1.36, -1.36
1508595462 - POWER - 2017-10-21, 14:17:42, 433000000, 434000000, 1000000.00, 122, -1.65, -1.65
1508595463 - POWER - 2017-10-21, 14:17:43, 433000000, 434000000, 1000000.00, 122, -1.76, -1.76
1508595464 - POWER - 2017-10-21, 14:17:44, 433000000, 434000000, 1000000.00, 122, -1.74, -1.74
1508595465 - POWER - 2017-10-21, 14:17:45, 433000000, 434000000, 1000000.00, 122, -1.70, -1.70
1508595466 - POWER - 2017-10-21, 14:17:46, 433000000, 434000000, 1000000.00, 122, -1.97, -1.97
