1508617595 - 
1508617595 - 
1508617595 - 
1508617595 - 
1508617595 - ,-27.7,M,,*6F
1508617595 - 6269,W,0.39,154.76,211017,,,A*7D
1508617595 - F
1508617595 - F
1508617595 - $GPGGA,202635.000,2615.8157,N,08134.6269,W,1,09,0.89,19.0,M,-27.7,M,,*6F
1508617595 - $GPGGA,202635.000,2615.8157,N,08134.6269,W,1,09,0.89,19.0,M,-27.7,M,,*6F
1508617595 - $GPGSA,A,3,21,13,24,15,20,18,29,32,10,,,,1.20,0.89,0.80*0B
1508617595 - $GPGSA,A,3,21,13,24,15,20,18,29,32,10,,,,1.20,0.89,0.80*0B
1508617595 - $GPRMC,202635.000,A,2615.8157,N,08134.6269,W,0.39,154.76,211017,,,A*7D
1508617595 - $GPRMC,202635.000,A,2615.8157,N,08134.6269,W,0.39,154.76,211017,,,A*7D
1508617595 - $GPVTG,154.76,T,,M,0.39,N,0.72,K,A*33
1508617595 - $GPVTG,154.76,T,,M,0.39,N,0.72,K,A*33
1508617596 - 
1508617596 - 
1508617596 - 
1508617596 - 
1508617596 - 
1508617596 - 
1508617596 - 
1508617596 - ,-27.7,M,,*6F
1508617596 - 6269,W,0.39,154.76,211017,,,A*7D
1508617596 - F
1508617596 - F
1508617596 - $GPGGA,202635.000,2615.8157,N,08134.6269,W,1,09,0.89,19.0,M,-27.7,M,,*6F
1508617596 - $GPGGA,202635.000,2615.8157,N,08134.6269,W,1,09,0.89,19.0,M,-27.7,M,,*6F
1508617596 - $GPGGA,202636.000,2615.8156,N,08134.6269,W,1,09,0.89,19.0,M,-27.7,M,,*6D
1508617596 - $GPGSA,A,3,21,13,24,15,20,18,29,32,10,,,,1.20,0.89,0.80*0B
1508617596 - $GPGSA,A,3,21,13,24,15,20,18,29,32,10,,,,1.20,0.89,0.80*0B
1508617596 - $GPGSA,A,3,21,13,24,15,20,18,29,32,10,,,,1.20,0.89,0.80*0B
1508617596 - $GPGSV,3,1,12,21,74,309,24,24,53,117,30,18,46,326,21,20,42,066,26*7F
1508617596 - $GPGSV,3,2,12,15,42,035,27,10,21,301,15,29,16,190,26,32,14,237,13*7E
1508617596 - $GPGSV,3,3,12,13,12,041,17,27,09,311,13,05,02,091,,43,,,*4D
1508617596 - $GPRMC,202635.000,A,2615.8157,N,08134.6269,W,0.39,154.76,211017,,,A*7D
1508617596 - $GPRMC,202636.000,A,2615.8156,N,08134.6269,W,0.38,170.11,211017,,,A*79
1508617596 - $GPVTG,154.76,T,,M,0.39,N,0.72,K,A*33
1508617596 - $GPVTG,170.11,T,,M,0.38,N,0.71,K,A*36
1508617596 - POWER - 2017-10-21, 20:26:36, 433000000, 434000000, 1000000.00, 2, -0.06, -0.06
1508617596 - POWER - 2017-10-21, 20:26:36, 434000000, 435000000, 1000000.00, 2, 0.74, 0.74
1508617596 - POWER - 2017-10-21, 20:26:36, 435000000, 436000000, 1000000.00, 2, 0.29, 0.29
1508617596 - POWER - 2017-10-21, 20:26:36, 436000000, 437000000, 1000000.00, 2, 0.21, 0.21
1508617596 - POWER - 2017-10-21, 20:26:36, 437000000, 438000000, 1000000.00, 2, 3.69, 3.69
1508617596 - POWER - 2017-10-21, 20:26:36, 438000000, 439000000, 1000000.00, 2, 3.58, 3.58
1508617596 - POWER - 2017-10-21, 20:26:36, 439000000, 440000000, 1000000.00, 2, 1.44, 1.44
1508617596 - POWER - 2017-10-21, 20:26:36, 440000000, 441000000, 1000000.00, 2, 2.08, 2.08
1508617596 - POWER - 2017-10-21, 20:26:36, 441000000, 442000000, 1000000.00, 2, 0.32, 0.32
1508617596 - POWER - 2017-10-21, 20:26:36, 442000000, 443000000, 1000000.00, 2, 1.19, 1.19
1508617596 - POWER - 2017-10-21, 20:26:36, 443000000, 444000000, 1000000.00, 2, 0.45, 0.45
1508617597 - 
1508617597 - 
1508617597 - ,-27.7,M,,*6D
1508617597 - ,-27.7,M,,*6F
1508617597 - 37,13*7E
1508617597 - 6269,W,0.38,170.11,211017,,,A*79
1508617597 - 6269,W,0.39,154.76,211017,,,A*7D
1508617597 - *6D
1508617597 - *6D
1508617597 - *6D
1508617597 - D
1508617597 - D
1508617597 - F
1508617597 - F
1508617597 - $GPGGA,202635.000,2615.8157,N,08134.6269,W,1,09,0.89,19.0,M,-27.7,M,,*6F
1508617597 - $GPGGA,202636.000,2615.8156,N,08134.6269,W,1,09,0.89,19.0,M,-27.7,M,,*6D
1508617597 - $GPGGA,202637.000,2615.8155,N,08134.6269,W,1,09,0.88,19.0,M,-27.7,M,,*6E
1508617597 - $GPGSA,A,3,21,13,24,15,20,18,29,32,10,,,,1.20,0.88,0.80*0A
1508617597 - $GPGSA,A,3,21,13,24,15,20,18,29,32,10,,,,1.20,0.89,0.80*0B
1508617597 - $GPGSV,3,1,12,21,74,309,24,24,53,117,30,18,46,326,21,20,42,066,26*7F
1508617597 - $GPGSV,3,2,12,15,42,035,27,10,21,301,15,29,16,190,26,32,14,237,13*7E
1508617597 - $GPGSV,3,3,12,13,12,041,17,27,09,311,13,05,02,091,,43,,,*4D
1508617597 - $GPRMC,202635.000,A,2615.8157,N,08134.6269,W,0.39,154.76,211017,,,A*7D
1508617597 - $GPRMC,202636.000,A,2615.8156,N,08134.6269,W,0.38,170.11,211017,,,A*79
1508617597 - $GPRMC,202637.000,A,2615.8155,N,08134.6269,W,0.31,175.78,211017,,,A*78
1508617597 - $GPVTG,154.76,T,,M,0.39,N,0.72,K,A*33
1508617597 - $GPVTG,170.11,T,,M,0.38,N,0.71,K,A*36
1508617597 - POWER - 2017-10-21, 20:26:37, 433000000, 434000000, 1000000.00, 1, 0.79, 0.79
1508617597 - POWER - 2017-10-21, 20:26:37, 434000000, 435000000, 1000000.00, 1, -1.11, -1.11
1508617597 - POWER - 2017-10-21, 20:26:37, 435000000, 436000000, 1000000.00, 1, 2.04, 2.04
1508617597 - POWER - 2017-10-21, 20:26:37, 436000000, 437000000, 1000000.00, 1, 2.09, 2.09
1508617597 - POWER - 2017-10-21, 20:26:37, 437000000, 438000000, 1000000.00, 1, 4.76, 4.76
1508617597 - POWER - 2017-10-21, 20:26:37, 438000000, 439000000, 1000000.00, 1, 4.34, 4.34
1508617597 - POWER - 2017-10-21, 20:26:37, 439000000, 440000000, 1000000.00, 1, 3.10, 3.10
1508617597 - POWER - 2017-10-21, 20:26:37, 440000000, 441000000, 1000000.00, 1, 1.22, 1.22
1508617597 - POWER - 2017-10-21, 20:26:37, 441000000, 442000000, 1000000.00, 1, 0.81, 0.81
1508617597 - POWER - 2017-10-21, 20:26:37, 442000000, 443000000, 1000000.00, 1, 1.80, 1.80
1508617597 - POWER - 2017-10-21, 20:26:37, 443000000, 444000000, 1000000.00, 1, 1.32, 1.32
1508617598 - 
1508617598 - 
1508617598 - ,-27.7,M,,*6D
1508617598 - 37,13*7E
1508617598 - 6269,W,0.38,170.11,211017,,,A*79
1508617598 - 6269,W,0.39,154.76,211017,,,A*7D
1508617598 - *6D
1508617598 - *6D
1508617598 - *6D
1508617598 - D
1508617598 - D
1508617598 - $GPGGA,202635.000,2615.8157,N,08134.6269,W,1,09,0.89,19.0,M,-27.7,M,,*6F
1508617598 - $GPGGA,202636.000,2615.8156,N,08134.6269,W,1,09,0.89,19.0,M,-27.7,M,,*6D
1508617598 - $GPGGA,202637.000,2615.8155,N,08134.6269,W,1,09,0.88,19.0,M,-27.7,M,,*6E
1508617598 - $GPGSA,A,3,21,13,24,15,20,18,29,32,10,,,,1.20,0.89,0.80*0B
1508617598 - $GPGSA,A,3,21,13,24,15,20,18,29,32,10,,,,1.20,0.89,0.80*0B
1508617598 - $GPGSV,3,1,12,21,74,309,24,24,53,117,30,18,46,326,21,20,42,066,26*7F
1508617598 - $GPGSV,3,2,12,15,42,035,27,10,21,301,15,29,16,190,26,32,14,237,13*7E
1508617598 - $GPGSV,3,3,12,13,12,041,17,27,09,311,13,05,02,091,,43,,,*4D
1508617598 - ÿÿÿ$GPRMC,202635.000,A,2615.8157,N,08134.6269,W,0.39,154.76,211017,,,A*7D
1508617598 - $GPRMC,202636.000,A,2615.8156,N,08134.6269,W,0.38,170.11,211017,,,A*79
1508617598 - $GPVTG,154.76,T,,M,0.39,N,0.72,K,A*33
1508617598 - $GPVTG,170.11,T,,M,0.38,N,0.71,K,A*36
1508617598 - $GPVTG,175.78,T,,M,0.31,N,0.58,K,A*3E
1508617598 - POWER - 2017-10-21, 20:26:38, 433000000, 434000000, 1000000.00, 1, 1.36, 1.36
1508617598 - POWER - 2017-10-21, 20:26:38, 434000000, 435000000, 1000000.00, 1, 1.01, 1.01
1508617598 - POWER - 2017-10-21, 20:26:38, 435000000, 436000000, 1000000.00, 1, 0.33, 0.33
1508617598 - POWER - 2017-10-21, 20:26:38, 436000000, 437000000, 1000000.00, 1, 2.08, 2.08
1508617598 - POWER - 2017-10-21, 20:26:38, 437000000, 438000000, 1000000.00, 1, 6.67, 6.67
1508617598 - POWER - 2017-10-21, 20:26:38, 438000000, 439000000, 1000000.00, 1, 3.10, 3.10
1508617598 - POWER - 2017-10-21, 20:26:38, 439000000, 440000000, 1000000.00, 1, 3.25, 3.25
1508617598 - POWER - 2017-10-21, 20:26:38, 440000000, 441000000, 1000000.00, 1, 3.23, 3.23
1508617598 - POWER - 2017-10-21, 20:26:38, 441000000, 442000000, 1000000.00, 1, -0.62, -0.62
1508617598 - POWER - 2017-10-21, 20:26:38, 442000000, 443000000, 1000000.00, 1, 1.09, 1.09
1508617598 - POWER - 2017-10-21, 20:26:38, 443000000, 444000000, 1000000.00, 1, 1.26, 1.26
1508617599 - 
1508617599 - 
1508617599 - 
1508617599 - 
1508617599 - 1017,,,A*78
1508617599 - ,-27.7,M,,*6D
1508617599 - ,-27.7,M,,*6E
1508617599 - 6269,W,0.31,175.78,211017,,,A*78
1508617599 - 6269,W,0.39,154.76,211017,,,A*7D
1508617599 - $GPGGA,202636.000,2615.8156,N,08134.6269,W,1,09,0.89,19.0,M,-27.7,M,,*6D
1508617599 - $GPGGA,202638.000,2615.8154,N,08134.6269,W,1,09,0.89,19.0,M,-27.7,M,,*61
1508617599 - $GPGSA,A,3,21,13,24,15,20,18,29,32,10,,,,1.20,0.88,0.80*0A
1508617599 - $GPGSA,A,3,21,13,24,15,20,18,29,32,10,,,,1.20,0.89,0.80*0B
1508617599 - $GPGSA,A,3,21,13,24,15,20,18,29,32,10,,,,1.20,0.89,0.80*0B
1508617599 - $GPGSA,A,3,21,13,24,15,20,18,29,32,10,,,,1.20,0.89,0.80*0B
1508617599 - $GPGSV,3,1,12,21,74,309,24,24,53,117,30,18,46,326,21,20,42,066,26*7F
1508617599 - $GPRMC,202635.000,A,2615.8157,N,08134.6269,W,0.39,154.76,211017,,,A*7D
1508617599 - $GPRMC,202637.000,A,2615.8155,N,08134.6269,W,0.31,175.78,211017,,,A*78
1508617599 - $GPRMC,202638.000,A,2615.8154,N,08134.6269,W,0.27,177.28,211017,,,A*76
1508617599 - $GPVTG,154.76,T,,M,0.39,N,0.72,K,A*33
1508617599 - $GPVTG,175.78,T,,M,0.31,N,0.58,K,A*3E
1508617599 - $GPVTG,177.28,T,,M,0.27,N,0.50,K,A*36
1508617599 - POWER - 2017-10-21, 20:26:39, 433000000, 434000000, 1000000.00, 2, 0.85, 0.85
1508617599 - POWER - 2017-10-21, 20:26:39, 434000000, 435000000, 1000000.00, 2, 0.79, 0.79
1508617599 - POWER - 2017-10-21, 20:26:39, 435000000, 436000000, 1000000.00, 2, 1.40, 1.40
1508617599 - POWER - 2017-10-21, 20:26:39, 436000000, 437000000, 1000000.00, 2, 1.10, 1.10
1508617599 - POWER - 2017-10-21, 20:26:39, 437000000, 438000000, 1000000.00, 2, 4.81, 4.81
1508617599 - POWER - 2017-10-21, 20:26:39, 438000000, 439000000, 1000000.00, 2, 4.37, 4.37
1508617599 - POWER - 2017-10-21, 20:26:39, 439000000, 440000000, 1000000.00, 2, 2.43, 2.43
1508617599 - POWER - 2017-10-21, 20:26:39, 440000000, 441000000, 1000000.00, 2, 2.47, 2.47
1508617599 - POWER - 2017-10-21, 20:26:39, 441000000, 442000000, 1000000.00, 2, 1.30, 1.30
1508617599 - POWER - 2017-10-21, 20:26:39, 442000000, 443000000, 1000000.00, 2, 0.51, 0.51
1508617599 - POWER - 2017-10-21, 20:26:39, 443000000, 444000000, 1000000.00, 2, 1.09, 1.09
1508617599 - z'œ:d˜y?$GPGSV,3,2,12,15,42,035,27,10,21,301,15,29,16,190,26,32,14,237,13*7E
1508617600 - 
1508617600 - 
1508617600 - 
1508617600 - 
1508617600 - 1
1508617600 - ,-27.7,M,,*61
1508617600 - ,-27.7,M,,*6E
1508617600 - 37,13*7E
1508617600 - 6269,W,0.38,170.11,211017,,,A*79
1508617600 - œ:d˜y?$GPGGA,202635.000,2615.8157,N,08134.6269,W,1,09,0.89,19.0,M,-27.7,M,,*6F
1508617600 - d˜y?$GPGGA,202639.000,2615.8154,N,08134.6269,W,1,09,0.88,19.0,M,-27.7,M,,*61
1508617600 - œ:d˜y?$GPVTG,170.11,T,,M,0.38,N,0.71,K,A*36
1508617600 - $GPGGA,202637.000,2615.8155,N,08134.6269,W,1,09,0.88,19.0,M,-27.7,M,,*6E
1508617600 - $GPGGA,202638.000,2615.8154,N,08134.6269,W,1,09,0.89,19.0,M,-27.7,M,,*61
1508617600 - $GPGSA,A,3,21,13,24,15,20,18,29,32,10,,,,1.20,0.88,0.80*0A
1508617600 - $GPGSA,A,3,21,13,24,15,20,18,29,32,10,,,,1.20,0.88,0.80*0A
1508617600 - $GPGSA,A,3,21,13,24,15,20,18,29,32,10,,,,1.20,0.89,0.80*0B
1508617600 - $GPRMC,202638.000,A,2615.8154,N,08134.6269,W,0.27,177.28,211017,,,A*76
1508617600 - $GPRMC,202639.000,A,2615.8154,N,08134.6269,W,0.24,169.15,211017,,,A*75
1508617600 - $GPVTG,169.15,T,,M,0.24,N,0.44,K,A*31
1508617600 - $GPVTG,177.28,T,,M,0.27,N,0.50,K,A*36
1508617600 - POWER - 2017-10-21, 20:26:40, 433000000, 434000000, 1000000.00, 1, 1.04, 1.04
1508617600 - POWER - 2017-10-21, 20:26:40, 434000000, 435000000, 1000000.00, 1, -0.40, -0.40
1508617600 - POWER - 2017-10-21, 20:26:40, 435000000, 436000000, 1000000.00, 1, 0.72, 0.72
1508617600 - POWER - 2017-10-21, 20:26:40, 436000000, 437000000, 1000000.00, 1, 0.58, 0.58
1508617600 - POWER - 2017-10-21, 20:26:40, 437000000, 438000000, 1000000.00, 1, 1.64, 1.64
1508617600 - POWER - 2017-10-21, 20:26:40, 438000000, 439000000, 1000000.00, 1, 4.38, 4.38
1508617600 - POWER - 2017-10-21, 20:26:40, 439000000, 440000000, 1000000.00, 1, 3.46, 3.46
1508617600 - POWER - 2017-10-21, 20:26:40, 440000000, 441000000, 1000000.00, 1, 2.41, 2.41
1508617600 - POWER - 2017-10-21, 20:26:40, 441000000, 442000000, 1000000.00, 1, 0.44, 0.44
1508617600 - POWER - 2017-10-21, 20:26:40, 442000000, 443000000, 1000000.00, 1, 0.98, 0.98
1508617600 - POWER - 2017-10-21, 20:26:40, 443000000, 444000000, 1000000.00, 1, 0.58, 0.58
1508617600 - z'œ:d˜y?$GPGSV,3,3,12,13,12,041,17,27,09,311,13,05,02,091,,43,,,*4D
1508617600 - z'œ:d˜y?$GPRMC,202636.000,A,2615.8156,N,08134.6269,W,0.38,170.11,211017,,,A*79
1508617601 - 
1508617601 - 
1508617601 - 
1508617601 - 
1508617601 - 1
1508617601 - 1
1508617601 - 1
1508617601 - 1
1508617601 - 1
1508617601 - 1
1508617601 - 1017,,,A*78
1508617601 - ,-27.7,M,,*6D
1508617601 - 6269,W,0.27,177.28,211017,,,A*76
1508617601 - 6269,W,0.31,175.78,211017,,,A*78
1508617601 - 6269,W,0.39,154.76,211017,,,A*7D
1508617601 - *6D
1508617601 - $GPGGA,202636.000,2615.8156,N,08134.6269,W,1,09,0.89,19.0,M,-27.7,M,,*6D
1508617601 - $GPGGA,202640.000,2615.8153,N,08134.6269,W,1,09,0.89,19.0,M,-27.7,M,,*69
1508617601 - $GPGSA,A,3,21,13,24,15,20,18,29,32,10,,,,1.20,0.89,0.80*0B
1508617601 - $GPGSA,A,3,21,13,24,15,20,18,29,32,10,,,,1.20,0.89,0.80*0B
1508617601 - $GPGSA,A,3,21,13,24,15,20,18,29,32,10,,,,1.20,0.89,0.80*0B
1508617601 - $GPGSV,3,1,12,21,74,309,24,24,53,117,30,18,46,326,21,20,42,066,26*7F
1508617601 - $GPGSV,3,2,12,15,42,035,27,10,21,301,15,29,16,190,26,32,14,237,13*7E
1508617601 - $GPRMC,202635.000,A,2615.8157,N,08134.6269,W,0.39,154.76,211017,,,A*7D
1508617601 - $GPRMC,202637.000,A,2615.8155,N,08134.6269,W,0.31,175.78,211017,,,A*78
1508617601 - $GPRMC,202640.000,A,2615.8153,N,08134.6269,W,0.27,181.18,211017,,,A*74
1508617601 - $GPVTG,154.76,T,,M,0.39,N,0.72,K,A*33
1508617601 - $GPVTG,175.78,T,,M,0.31,N,0.58,K,A*3E
1508617601 - $GPVTG,181.18,T,,M,0.27,N,0.50,K,A*3C
1508617601 - POWER - 2017-10-21, 20:26:41, 433000000, 434000000, 1000000.00, 1, 1.38, 1.38
1508617601 - POWER - 2017-10-21, 20:26:41, 434000000, 435000000, 1000000.00, 1, 0.59, 0.59
1508617601 - POWER - 2017-10-21, 20:26:41, 435000000, 436000000, 1000000.00, 1, 0.28, 0.28
1508617601 - POWER - 2017-10-21, 20:26:41, 436000000, 437000000, 1000000.00, 1, 1.19, 1.19
1508617601 - POWER - 2017-10-21, 20:26:41, 437000000, 438000000, 1000000.00, 1, 1.23, 1.23
1508617601 - POWER - 2017-10-21, 20:26:41, 438000000, 439000000, 1000000.00, 1, 3.96, 3.96
1508617601 - POWER - 2017-10-21, 20:26:41, 439000000, 440000000, 1000000.00, 1, 3.66, 3.66
1508617601 - POWER - 2017-10-21, 20:26:41, 440000000, 441000000, 1000000.00, 1, 1.46, 1.46
1508617601 - POWER - 2017-10-21, 20:26:41, 441000000, 442000000, 1000000.00, 1, 1.81, 1.81
1508617601 - POWER - 2017-10-21, 20:26:41, 442000000, 443000000, 1000000.00, 1, 1.50, 1.50
1508617601 - POWER - 2017-10-21, 20:26:41, 443000000, 444000000, 1000000.00, 1, 0.41, 0.41
1508617602 - 
1508617602 - 1
1508617602 - 1
1508617602 - ,-27.7,M,,*61
1508617602 - ,-27.7,M,,*61
1508617602 - ,-27.7,M,,*6E
1508617602 - 37,13*7E
1508617602 - 6269,W,0.24,169.15,211017,,,A*75
1508617602 - 6269,W,0.38,170.11,211017,,,A*79
1508617602 - $GPGGA,202635.000,2615.8157,N,08134.6269,W,1,09,0.89,19.0,M,-27.7,M,,*6F
1508617602 - $GPGGA,202637.000,2615.8155,N,08134.6269,W,1,09,0.88,19.0,M,-27.7,M,,*6E
1508617602 - $GPGGA,202638.000,2615.8154,N,08134.6269,W,1,09,0.89,19.0,M,-27.7,M,,*61
1508617602 - $GPGGA,202639.000,2615.8154,N,08134.6269,W,1,09,0.88,19.0,M,-27.7,M,,*61
1508617602 - $GPGGA,202641.000,2615.8152,N,08134.6269,W,1,09,0.89,19.0,M,-27.7,M,,*69
1508617602 - $GPGSA,A,3,21,13,24,15,20,18,29,32,10,,,,1.20,0.88,0.80*0A
1508617602 - $GPGSA,A,3,21,13,24,15,20,18,29,32,10,,,,1.20,0.88,0.80*0A
1508617602 - $GPGSA,A,3,21,13,24,15,20,18,29,32,10,,,,1.20,0.89,0.80*0B
1508617602 - $GPGSV,3,3,12,13,12,041,17,27,09,311,13,05,02,091,,43,,,*4D
1508617602 - $GPRMC,202636.000,A,2615.8156,N,08134.6269,W,0.38,170.11,211017,,,A*79
1508617602 - $GPRMC,202639.000,A,2615.8154,N,08134.6269,W,0.24,169.15,211017,,,A*75
1508617602 - $GPVTG,169.15,T,,M,0.24,N,0.44,K,A*31
1508617602 - $GPVTG,170.11,T,,M,0.38,N,0.71,K,A*36
1508617602 - POWER - 2017-10-21, 20:26:42, 433000000, 434000000, 1000000.00, 2, 0.67, 0.67
1508617602 - POWER - 2017-10-21, 20:26:42, 434000000, 435000000, 1000000.00, 2, 0.45, 0.45
1508617602 - POWER - 2017-10-21, 20:26:42, 435000000, 436000000, 1000000.00, 2, -0.21, -0.21
1508617602 - POWER - 2017-10-21, 20:26:42, 436000000, 437000000, 1000000.00, 2, 0.49, 0.49
1508617602 - POWER - 2017-10-21, 20:26:42, 437000000, 438000000, 1000000.00, 2, 2.12, 2.12
1508617602 - POWER - 2017-10-21, 20:26:42, 438000000, 439000000, 1000000.00, 2, 3.52, 3.52
1508617602 - POWER - 2017-10-21, 20:26:42, 439000000, 440000000, 1000000.00, 2, 1.94, 1.94
1508617602 - POWER - 2017-10-21, 20:26:42, 440000000, 441000000, 1000000.00, 2, 2.04, 2.04
1508617602 - POWER - 2017-10-21, 20:26:42, 441000000, 442000000, 1000000.00, 2, -0.14, -0.14
1508617602 - POWER - 2017-10-21, 20:26:42, 442000000, 443000000, 1000000.00, 2, -0.33, -0.33
1508617602 - POWER - 2017-10-21, 20:26:42, 443000000, 444000000, 1000000.00, 2, 0.35, 0.35
1508617603 - 
1508617603 - 
1508617603 - 
1508617603 - 
1508617603 - 
1508617603 - 
1508617603 - 1017,,,A*78
1508617603 - 6269,W,0.27,177.28,211017,,,A*76
1508617603 - 6269,W,0.31,175.78,211017,,,A*78
1508617603 - 6269,W,0.39,154.76,211017,,,A*7D
1508617603 - $GPGGA,202636.000,2615.8156,N,08134.6269,W,1,09,0.89,19.0,M,-27.7,M,,*6D
1508617603 - $GPGSA,A,3,21,13,24,15,20,18,29,32,10,,,,1.20,0.89,0.80*0B
1508617603 - $GPGSA,A,3,21,13,24,15,20,18,29,32,10,,,,1.20,0.89,0.80*0B
1508617603 - $GPGSV,3,1,12,21,74,309,23,24,53,117,30,18,46,326,20,20,42,066,26*79
1508617603 - $GPGSV,3,2,12,15,42,035,27,10,21,301,14,29,16,190,26,32,14,237,12*7E
1508617603 - $GPGSV,3,3,12,13,12,041,17,27,09,311,13,05,02,092,,43,,,*4E
1508617603 - $GPRMC,202635.000,A,2615.8157,N,08134.6269,W,0.39,154.76,211017,,,A*7D
1508617603 - $GPRMC,202637.000,A,2615.8155,N,08134.6269,W,0.31,175.78,211017,,,A*78
1508617603 - $GPRMC,202638.000,A,2615.8154,N,08134.6269,W,0.27,177.28,211017,,,A*76
1508617603 - $GPRMC,202641.000,A,2615.8152,N,08134.6269,W,0.25,164.84,211017,,,A*78
1508617603 - $GPVTG,154.76,T,,M,0.39,N,0.72,K,A*33
1508617603 - $GPVTG,164.84,T,,M,0.25,N,0.46,K,A*37
1508617603 - $GPVTG,175.78,T,,M,0.31,N,0.58,K,A*3E
1508617603 - $GPVTG,177.28,T,,M,0.27,N,0.50,K,A*36
1508617603 - POWER - 2017-10-21, 20:26:43, 433000000, 434000000, 1000000.00, 1, 0.53, 0.53
1508617603 - POWER - 2017-10-21, 20:26:43, 434000000, 435000000, 1000000.00, 1, -0.58, -0.58
1508617603 - POWER - 2017-10-21, 20:26:43, 435000000, 436000000, 1000000.00, 1, -1.10, -1.10
1508617603 - POWER - 2017-10-21, 20:26:43, 436000000, 437000000, 1000000.00, 1, -0.43, -0.43
1508617603 - POWER - 2017-10-21, 20:26:43, 437000000, 438000000, 1000000.00, 1, 1.64, 1.64
1508617603 - POWER - 2017-10-21, 20:26:43, 438000000, 439000000, 1000000.00, 1, 3.03, 3.03
1508617603 - POWER - 2017-10-21, 20:26:43, 439000000, 440000000, 1000000.00, 1, 1.75, 1.75
1508617603 - POWER - 2017-10-21, 20:26:43, 440000000, 441000000, 1000000.00, 1, 2.63, 2.63
1508617603 - POWER - 2017-10-21, 20:26:43, 441000000, 442000000, 1000000.00, 1, 0.09, 0.09
1508617603 - POWER - 2017-10-21, 20:26:43, 442000000, 443000000, 1000000.00, 1, 0.70, 0.70
1508617603 - POWER - 2017-10-21, 20:26:43, 443000000, 444000000, 1000000.00, 1, 1.11, 1.11
1508617604 - 
1508617604 - 
1508617604 - 
1508617604 - 
1508617604 - ,-27.7,M,,*69
1508617604 - ,-27.7,M,,*6D
1508617604 - 37,13*7E
1508617604 - 4
1508617604 - 4
1508617604 - 6269,W,0.27,181.18,211017,,,A*74
1508617604 - 6269,W,0.38,170.11,211017,,,A*79
1508617604 - *6D
1508617604 - $GPGGA,202640.000,2615.8153,N,08134.6269,W,1,09,0.89,19.0,M,-27.7,M,,*69
1508617604 - $GPGGA,202642.000,2615.8152,N,08134.6268,W,1,09,0.89,19.0,M,-27.7,M,,*6B
1508617604 - $GPGSA,A,3,21,13,24,15,20,18,29,32,10,,,,1.20,0.89,0.80*0B
1508617604 - $GPGSA,A,3,21,13,24,15,20,18,29,32,10,,,,1.20,0.89,0.80*0B
1508617604 - $GPGSA,A,3,21,13,24,15,20,18,29,32,10,,,,1.20,0.89,0.80*0B
1508617604 - $GPGSV,3,1,12,21,74,309,24,24,53,117,30,18,46,326,21,20,42,066,26*7F
1508617604 - $GPGSV,3,2,12,15,42,035,27,10,21,301,15,29,16,190,26,32,14,237,13*7E
1508617604 - $GPGSV,3,3,12,13,12,041,17,27,09,311,13,05,02,091,,43,,,*4D
1508617604 - $GPRMC,202636.000,A,2615.8156,N,08134.6269,W,0.38,170.11,211017,,,A*79
1508617604 - $GPRMC,202640.000,A,2615.8153,N,08134.6269,W,0.27,181.18,211017,,,A*74
1508617604 - $GPRMC,202642.000,A,2615.8152,N,08134.6268,W,0.13,175.43,211017,,,A*74
1508617604 - $GPVTG,170.11,T,,M,0.38,N,0.71,K,A*36
1508617604 - $GPVTG,175.43,T,,M,0.13,N,0.23,K,A*3A
1508617604 - $GPVTG,181.18,T,,M,0.27,N,0.50,K,A*3C
1508617604 - POWER - 2017-10-21, 20:26:44, 433000000, 434000000, 1000000.00, 2, -0.40, -0.40
1508617604 - POWER - 2017-10-21, 20:26:44, 434000000, 435000000, 1000000.00, 2, -0.41, -0.41
1508617604 - POWER - 2017-10-21, 20:26:44, 435000000, 436000000, 1000000.00, 2, -0.58, -0.58
1508617604 - POWER - 2017-10-21, 20:26:44, 436000000, 437000000, 1000000.00, 2, 0.56, 0.56
1508617604 - POWER - 2017-10-21, 20:26:44, 437000000, 438000000, 1000000.00, 2, 1.05, 1.05
1508617604 - POWER - 2017-10-21, 20:26:44, 438000000, 439000000, 1000000.00, 2, 2.81, 2.81
1508617604 - POWER - 2017-10-21, 20:26:44, 439000000, 440000000, 1000000.00, 2, 2.08, 2.08
1508617604 - POWER - 2017-10-21, 20:26:44, 440000000, 441000000, 1000000.00, 2, 0.94, 0.94
1508617604 - POWER - 2017-10-21, 20:26:44, 441000000, 442000000, 1000000.00, 2, -0.78, -0.78
1508617604 - POWER - 2017-10-21, 20:26:44, 442000000, 443000000, 1000000.00, 2, 0.28, 0.28
1508617604 - POWER - 2017-10-21, 20:26:44, 443000000, 444000000, 1000000.00, 2, -0.32, -0.32
1508617605 - 
1508617605 - 
1508617605 - 
1508617605 - 
1508617605 - 1
1508617605 - 1
1508617605 - ,-27.7,M,,*61
1508617605 - ,-27.7,M,,*6E
1508617605 - 6269,W,0.24,169.15,211017,,,A*75
1508617605 - $GPGGA,202635.000,2615.8157,N,08134.6269,W,1,09,0.89,19.0,M,-27.7,M,,*6F
1508617605 - $GPGGA,202637.000,2615.8155,N,08134.6269,W,1,09,0.88,19.0,M,-27.7,M,,*6E
1508617605 - $GPGGA,202638.000,2615.8154,N,08134.6269,W,1,09,0.89,19.0,M,-27.7,M,,*61
1508617605 - $GPGGA,202639.000,2615.8154,N,08134.6269,W,1,09,0.88,19.0,M,-27.7,M,,*61
1508617605 - ÿÿÿ$GPGGA,202641.000,2615.8152,N,08134.6269,W,1,09,0.89,19.0,M,-27.7,M,,*69
1508617605 - $GPGGA,202643.000,2615.8151,N,08134.6268,W,1,09,0.89,19.0,M,-27.7,M,,*69
1508617605 - $GPGSA,A,3,21,13,24,15,20,18,29,32,10,,,,1.20,0.88,0.80*0A
1508617605 - $GPGSA,A,3,21,13,24,15,20,18,29,32,10,,,,1.20,0.88,0.80*0A
1508617605 - $GPGSA,A,3,21,13,24,15,20,18,29,32,10,,,,1.20,0.89,0.80*0B
1508617605 - $GPGSA,A,3,21,13,24,15,20,18,29,32,10,,,,1.20,0.89,0.80*0B
1508617605 - $GPRMC,202639.000,A,2615.8154,N,08134.6269,W,0.24,169.15,211017,,,A*75
1508617605 - $GPRMC,202643.000,A,2615.8151,N,08134.6268,W,0.13,240.27,211017,,,A*71
1508617605 - $GPVTG,169.15,T,,M,0.24,N,0.44,K,A*31
1508617605 - $GPVTG,240.27,T,,M,0.13,N,0.23,K,A*3D
1508617605 - POWER - 2017-10-21, 20:26:45, 433000000, 434000000, 1000000.00, 1, 0.07, 0.07
1508617605 - POWER - 2017-10-21, 20:26:45, 434000000, 435000000, 1000000.00, 1, -1.17, -1.17
1508617605 - POWER - 2017-10-21, 20:26:45, 435000000, 436000000, 1000000.00, 1, 0.81, 0.81
1508617605 - POWER - 2017-10-21, 20:26:45, 436000000, 437000000, 1000000.00, 1, 1.18, 1.18
1508617605 - POWER - 2017-10-21, 20:26:45, 437000000, 438000000, 1000000.00, 1, 0.51, 0.51
1508617605 - POWER - 2017-10-21, 20:26:45, 438000000, 439000000, 1000000.00, 1, 2.99, 2.99
1508617605 - POWER - 2017-10-21, 20:26:45, 439000000, 440000000, 1000000.00, 1, 1.75, 1.75
1508617605 - POWER - 2017-10-21, 20:26:45, 440000000, 441000000, 1000000.00, 1, 0.94, 0.94
1508617605 - POWER - 2017-10-21, 20:26:45, 441000000, 442000000, 1000000.00, 1, -0.52, -0.52
1508617605 - POWER - 2017-10-21, 20:26:45, 442000000, 443000000, 1000000.00, 1, -0.28, -0.28
1508617605 - POWER - 2017-10-21, 20:26:45, 443000000, 444000000, 1000000.00, 1, -1.02, -1.02
1508617606 - 
1508617606 - 
1508617606 - 1017,,,A*78
1508617606 - ,-27.7,M,,*69
1508617606 - 37,12*7E
1508617606 - 6269,W,0.25,164.84,211017,,,A*78
1508617606 - 6269,W,0.27,177.28,211017,,,A*76
1508617606 - 6269,W,0.31,175.78,211017,,,A*78
1508617606 - *69
1508617606 - *69
1508617606 - *69
1508617606 - 9
1508617606 - 9
1508617606 - 9
1508617606 - 9
1508617606 - 9
1508617606 - 9
1508617606 - 9
1508617606 - $GPGGA,202644.000,2615.8151,N,08134.6269,W,1,09,0.89,19.0,M,-27.7,M,,*6F
1508617606 - $GPGSA,A,3,21,13,24,15,20,18,29,32,10,,,,1.20,0.89,0.80*0B
1508617606 - $GPGSA,A,3,21,13,24,15,20,18,29,32,10,,,,1.20,0.89,0.80*0B
1508617606 - $GPGSA,A,3,21,13,24,15,20,18,29,32,10,,,,1.20,0.89,0.80*0B
1508617606 - $GPGSV,3,1,12,21,74,309,23,24,53,117,30,18,46,326,20,20,42,066,26*79
1508617606 - $GPGSV,3,2,12,15,42,035,27,10,21,301,14,29,16,190,26,32,14,237,12*7E
1508617606 - $GPGSV,3,3,12,13,12,041,17,27,09,311,13,05,02,092,,43,,,*4E
1508617606 - $GPRMC,202637.000,A,2615.8155,N,08134.6269,W,0.31,175.78,211017,,,A*78
1508617606 - $GPRMC,202638.000,A,2615.8154,N,08134.6269,W,0.27,177.28,211017,,,A*76
1508617606 - $GPRMC,202641.000,A,2615.8152,N,08134.6269,W,0.25,164.84,211017,,,A*78
1508617606 - $GPVTG,164.84,T,,M,0.25,N,0.46,K,A*37
1508617606 - $GPVTG,175.78,T,,M,0.31,N,0.58,K,A*3E
1508617606 - $GPVTG,177.28,T,,M,0.27,N,0.50,K,A*36
1508617606 - POWER - 2017-10-21, 20:26:46, 433000000, 434000000, 1000000.00, 1, -0.24, -0.24
1508617606 - POWER - 2017-10-21, 20:26:46, 434000000, 435000000, 1000000.00, 1, 0.29, 0.29
1508617606 - POWER - 2017-10-21, 20:26:46, 435000000, 436000000, 1000000.00, 1, -1.28, -1.28
1508617606 - POWER - 2017-10-21, 20:26:46, 436000000, 437000000, 1000000.00, 1, -0.32, -0.32
1508617606 - POWER - 2017-10-21, 20:26:46, 437000000, 438000000, 1000000.00, 1, 5.01, 5.01
1508617606 - POWER - 2017-10-21, 20:26:46, 438000000, 439000000, 1000000.00, 1, 3.73, 3.73
1508617606 - POWER - 2017-10-21, 20:26:46, 439000000, 440000000, 1000000.00, 1, 3.75, 3.75
1508617606 - POWER - 2017-10-21, 20:26:46, 440000000, 441000000, 1000000.00, 1, 2.61, 2.61
1508617606 - POWER - 2017-10-21, 20:26:46, 441000000, 442000000, 1000000.00, 1, 0.86, 0.86
1508617606 - POWER - 2017-10-21, 20:26:46, 442000000, 443000000, 1000000.00, 1, 1.04, 1.04
1508617606 - POWER - 2017-10-21, 20:26:46, 443000000, 444000000, 1000000.00, 1, 1.65, 1.65
1508617607 - 
1508617607 - 
1508617607 - ,-27.7,M,,*69
1508617607 - ,-27.7,M,,*6B
1508617607 - ,-27.7,M,,*6D
1508617607 - 6268,W,0.13,175.43,211017,,,A*74
1508617607 - 6269,W,0.39,154.76,211017,,,A*7D
1508617607 - *6D
1508617607 - B
1508617607 - B
1508617607 - $GPGGA,202636.000,2615.8156,N,08134.6269,W,1,09,0.89,19.0,M,-27.7,M,,*6D
1508617607 - $GPGGA,202640.000,2615.8153,N,08134.6269,W,1,09,0.89,19.0,M,-27.7,M,,*69
1508617607 - $GPGGA,202642.000,2615.8152,N,08134.6268,W,1,09,0.89,19.0,M,-27.7,M,,*6B
1508617607 - `$GPGSA,A,3,21,13,24,15,20,18,29,32,10,,,,1.20,0.89,0.80*0B
1508617607 - $GPGSA,A,3,21,13,24,15,20,18,29,32,10,,,,1.20,0.89,0.80*0B
1508617607 - $GPGSA,A,3,21,13,24,15,20,18,29,32,10,,,,1.20,0.89,0.80*0B
1508617607 - $GPGSV,3,1,12,21,74,309,24,24,53,117,30,18,46,326,21,20,42,066,26*7F
1508617607 - $GPRMC,202635.000,A,2615.8157,N,08134.6269,W,0.39,154.76,211017,,,A*7D
1508617607 - `$GPRMC,202642.000,A,2615.8152,N,08134.6268,W,0.13,175.43,211017,,,A*74
1508617607 - $GPRMC,202644.000,A,2615.8151,N,08134.6269,W,0.25,231.40,211017,,,A*75
1508617607 - $GPVTG,154.76,T,,M,0.39,N,0.72,K,A*33
1508617607 - `$GPVTG,175.43,T,,M,0.13,N,0.23,K,A*3A
1508617607 - $GPVTG,231.40,T,,M,0.25,N,0.46,K,A*3C
1508617607 - POWER - 2017-10-21, 20:26:47, 433000000, 434000000, 1000000.00, 2, 1.14, 1.14
1508617607 - POWER - 2017-10-21, 20:26:47, 434000000, 435000000, 1000000.00, 2, -0.23, -0.23
1508617607 - POWER - 2017-10-21, 20:26:47, 435000000, 436000000, 1000000.00, 2, 1.21, 1.21
1508617607 - POWER - 2017-10-21, 20:26:47, 436000000, 437000000, 1000000.00, 2, 1.80, 1.80
1508617607 - POWER - 2017-10-21, 20:26:47, 437000000, 438000000, 1000000.00, 2, 5.30, 5.30
1508617607 - POWER - 2017-10-21, 20:26:47, 438000000, 439000000, 1000000.00, 2, 3.63, 3.63
1508617607 - POWER - 2017-10-21, 20:26:47, 439000000, 440000000, 1000000.00, 2, 2.51, 2.51
1508617607 - POWER - 2017-10-21, 20:26:47, 440000000, 441000000, 1000000.00, 2, 2.21, 2.21
1508617607 - POWER - 2017-10-21, 20:26:47, 441000000, 442000000, 1000000.00, 2, 0.40, 0.40
1508617607 - POWER - 2017-10-21, 20:26:47, 442000000, 443000000, 1000000.00, 2, 0.98, 0.98
1508617607 - POWER - 2017-10-21, 20:26:47, 443000000, 444000000, 1000000.00, 2, 1.03, 1.03
1508617608 - 
1508617608 - 
1508617608 - 
1508617608 - 
1508617608 - ,-27.7,M,,*61
1508617608 - 4
1508617608 - 6269,W,0.27,181.18,211017,,,A*74
1508617608 - 6269,W,0.38,170.11,211017,,,A*79
1508617608 - B
1508617608 - B
1508617608 - B
1508617608 - $GPGGA,202635.000,2615.8157,N,08134.6269,W,1,09,0.89,19.0,M,-27.7,M,,*6F
1508617608 - $GPGGA,202639.000,2615.8154,N,08134.6269,W,1,09,0.88,19.0,M,-27.7,M,,*61
1508617608 - `$GPGGA,202645.000,2615.8151,N,08134.6269,W,1,09,0.89,19.0,M,-27.7,M,,*6E
1508617608 - $GPGSA,A,3,21,13,24,15,20,18,29,32,10,,,,1.20,0.88,0.80*0A
1508617608 - $GPGSA,A,3,21,13,24,15,20,18,29,32,10,,,,1.20,0.89,0.80*0B
1508617608 - `$GPGSV,3,2,12,15,42,035,27,10,21,301,15,29,16,190,26,32,14,237,13*7E
1508617608 - $GPGSV,3,3,12,13,12,041,17,27,09,311,13,05,02,091,,43,,,*4D
1508617608 - ÿÿ$GPRMC,202636.000,A,2615.8156,N,08134.6269,W,0.38,170.11,211017,,,A*79
1508617608 - `$GPRMC,202640.000,A,2615.8153,N,08134.6269,W,0.27,181.18,211017,,,A*74
1508617608 - $GPRMC,202645.000,A,2615.8151,N,08134.6269,W,0.21,223.26,211017,,,A*73
1508617608 - $GPVTG,170.11,T,,M,0.38,N,0.71,K,A*36
1508617608 - `$GPVTG,181.18,T,,M,0.27,N,0.50,K,A*3C
1508617608 - $GPVTG,223.26,T,,M,0.21,N,0.39,K,A*33
1508617608 - POWER - 2017-10-21, 20:26:48, 433000000, 434000000, 1000000.00, 1, 0.39, 0.39
1508617608 - POWER - 2017-10-21, 20:26:48, 434000000, 435000000, 1000000.00, 1, 0.09, 0.09
1508617608 - POWER - 2017-10-21, 20:26:48, 435000000, 436000000, 1000000.00, 1, 0.51, 0.51
1508617608 - POWER - 2017-10-21, 20:26:48, 436000000, 437000000, 1000000.00, 1, 0.20, 0.20
1508617608 - POWER - 2017-10-21, 20:26:48, 437000000, 438000000, 1000000.00, 1, 2.26, 2.26
1508617608 - POWER - 2017-10-21, 20:26:48, 438000000, 439000000, 1000000.00, 1, 3.87, 3.87
1508617608 - POWER - 2017-10-21, 20:26:48, 439000000, 440000000, 1000000.00, 1, 2.89, 2.89
1508617608 - POWER - 2017-10-21, 20:26:48, 440000000, 441000000, 1000000.00, 1, 1.54, 1.54
1508617608 - POWER - 2017-10-21, 20:26:48, 441000000, 442000000, 1000000.00, 1, 0.55, 0.55
1508617608 - POWER - 2017-10-21, 20:26:48, 442000000, 443000000, 1000000.00, 1, -0.40, -0.40
1508617608 - POWER - 2017-10-21, 20:26:48, 443000000, 444000000, 1000000.00, 1, 1.44, 1.44
1508617609 - 
1508617609 - 
1508617609 - 
1508617609 - 
1508617609 - 
1508617609 - 
1508617609 - 
1508617609 - 1
1508617609 - 1
1508617609 - ,-27.7,M,,*69
1508617609 - ,-27.7,M,,*6E
1508617609 - 6269,W,0.24,169.15,211017,,,A*75
1508617609 - $GPGGA,202637.000,2615.8155,N,08134.6269,W,1,09,0.88,19.0,M,-27.7,M,,*6E
1508617609 - $GPGGA,202638.000,2615.8154,N,08134.6269,W,1,09,0.89,19.0,M,-27.7,M,,*61
1508617609 - $GPGGA,202643.000,2615.8151,N,08134.6268,W,1,09,0.89,19.0,M,-27.7,M,,*69
1508617609 - $GPGGA,202646.000,2615.8150,N,08134.6270,W,1,09,0.89,19.0,M,-27.7,M,,*64
1508617609 - $GPGSA,A,3,21,13,24,15,20,18,29,32,10,,,,1.20,0.88,0.80*0A
1508617609 - $GPGSA,A,3,21,13,24,15,20,18,29,32,10,,,,1.20,0.89,0.80*0B
1508617609 - $GPGSA,A,3,21,13,24,15,20,18,29,32,10,,,,1.20,0.89,0.80*0B
1508617609 - $GPGSV,3,1,12,21,74,309,23,24,53,117,30,18,46,326,18,20,42,066,26*72
1508617609 - $GPGSV,3,2,12,15,42,035,27,10,22,301,14,29,16,190,26,32,14,237,13*7C
1508617609 - $GPGSV,3,3,12,13,12,041,18,27,09,311,13,05,02,092,,45,,,*47
1508617609 - $GPRMC,202639.000,A,2615.8154,N,08134.6269,W,0.24,169.15,211017,,,A*75
1508617609 - $GPRMC,202646.000,A,2615.8150,N,08134.6270,W,0.16,202.31,211017,,,A*78
1508617609 - $GPVTG,169.15,T,,M,0.24,N,0.44,K,A*31
1508617609 - $GPVTG,202.31,T,,M,0.16,N,0.30,K,A*3B
1508617609 - POWER - 2017-10-21, 20:26:49, 433000000, 434000000, 1000000.00, 1, 0.32, 0.32
1508617609 - POWER - 2017-10-21, 20:26:49, 434000000, 435000000, 1000000.00, 1, 0.43, 0.43
1508617609 - POWER - 2017-10-21, 20:26:49, 435000000, 436000000, 1000000.00, 1, 1.24, 1.24
1508617609 - POWER - 2017-10-21, 20:26:49, 436000000, 437000000, 1000000.00, 1, -1.54, -1.54
1508617609 - POWER - 2017-10-21, 20:26:49, 437000000, 438000000, 1000000.00, 1, 1.27, 1.27
1508617609 - POWER - 2017-10-21, 20:26:49, 438000000, 439000000, 1000000.00, 1, 3.49, 3.49
1508617609 - POWER - 2017-10-21, 20:26:49, 439000000, 440000000, 1000000.00, 1, 2.67, 2.67
1508617609 - POWER - 2017-10-21, 20:26:49, 440000000, 441000000, 1000000.00, 1, 2.79, 2.79
1508617609 - POWER - 2017-10-21, 20:26:49, 441000000, 442000000, 1000000.00, 1, 0.12, 0.12
1508617609 - POWER - 2017-10-21, 20:26:49, 442000000, 443000000, 1000000.00, 1, 0.53, 0.53
1508617609 - POWER - 2017-10-21, 20:26:49, 443000000, 444000000, 1000000.00, 1, 1.49, 1.49
1508617610 - 1017,,,A*71
1508617610 - ,-27.7,M,,*69
1508617610 - 37,12*7E
1508617610 - 6268,W,0.13,240.27,211017,,,A*71
1508617610 - 6269,W,0.25,164.84,211017,,,A*78
1508617610 - 6269,W,0.27,177.28,211017,,,A*76
1508617610 - *69
1508617610 - *69
1508617610 - *69
1508617610 - 9
1508617610 - 9
1508617610 - 9
1508617610 - 9
1508617610 - 9
1508617610 - $GPGGA,202641.000,2615.8152,N,08134.6269,W,1,09,0.89,19.0,M,-27.7,M,,*69
1508617610 - $GPGSA,A,3,21,13,24,15,20,18,29,32,10,,,,1.20,0.89,0.80*0B
1508617610 - $GPGSA,A,3,21,13,24,15,20,18,29,32,10,,,,1.20,0.89,0.80*0B
1508617610 - $GPGSV,3,1,12,21,74,309,23,24,53,117,30,18,46,326,20,20,42,066,26*79
1508617610 - $GPGSV,3,2,12,15,42,035,27,10,21,301,14,29,16,190,26,32,14,237,12*7E
1508617610 - $GPGSV,3,3,12,13,12,041,17,27,09,311,13,05,02,092,,43,,,*4E
1508617610 - $GPRMC,202637.000,A,2615.8155,N,08134.6269,W,0.31,175.78,211017,,,A*78
1508617610 - $GPRMC,202638.000,A,2615.8154,N,08134.6269,W,0.27,177.28,211017,,,A*76
1508617610 - $GPRMC,202641.000,A,2615.8152,N,08134.6269,W,0.25,164.84,211017,,,A*78
1508617610 - $GPRMC,202643.000,A,2615.8151,N,08134.6268,W,0.13,240.27,211017,,,A*71
1508617610 - $GPVTG,164.84,T,,M,0.25,N,0.46,K,A*37
1508617610 - $GPVTG,177.28,T,,M,0.27,N,0.50,K,A*36
1508617610 - $GPVTG,240.27,T,,M,0.13,N,0.23,K,A*3D
1508617610 - POWER - 2017-10-21, 20:26:50, 433000000, 434000000, 1000000.00, 2, -0.51, -0.51
1508617610 - POWER - 2017-10-21, 20:26:50, 434000000, 435000000, 1000000.00, 2, 0.17, 0.17
1508617610 - POWER - 2017-10-21, 20:26:50, 435000000, 436000000, 1000000.00, 2, 0.56, 0.56
1508617610 - POWER - 2017-10-21, 20:26:50, 436000000, 437000000, 1000000.00, 2, 0.04, 0.04
1508617610 - POWER - 2017-10-21, 20:26:50, 437000000, 438000000, 1000000.00, 2, 0.47, 0.47
1508617610 - POWER - 2017-10-21, 20:26:50, 438000000, 439000000, 1000000.00, 2, 3.59, 3.59
1508617610 - POWER - 2017-10-21, 20:26:50, 439000000, 440000000, 1000000.00, 2, 1.21, 1.21
1508617610 - POWER - 2017-10-21, 20:26:50, 440000000, 441000000, 1000000.00, 2, 1.54, 1.54
1508617610 - POWER - 2017-10-21, 20:26:50, 441000000, 442000000, 1000000.00, 2, -0.16, -0.16
1508617610 - POWER - 2017-10-21, 20:26:50, 442000000, 443000000, 1000000.00, 2, -1.45, -1.45
1508617610 - POWER - 2017-10-21, 20:26:50, 443000000, 444000000, 1000000.00, 2, 0.12, 0.12
1508617611 - 
1508617611 - 
1508617611 - 
1508617611 - 
1508617611 - ,-27.7,M,,*6D
1508617611 - ,-27.7,M,,*6F
1508617611 - 6269,W,0.25,231.40,211017,,,A*75
1508617611 - 6269,W,0.39,154.76,211017,,,A*7D
1508617611 - F
1508617611 - F
1508617611 - F
1508617611 - F
1508617611 - $GPGGA,202636.000,2615.8156,N,08134.6269,W,1,09,0.89,19.0,M,-27.7,M,,*6D
1508617611 - ÿÿÿ$GPGGA,202644.000,2615.8151,N,08134.6269,W,1,09,0.89,19.0,M,-27.7,M,,*6F
1508617611 - $GPGGA,202647.000,2615.8150,N,08134.6270,W,1,09,0.89,19.0,M,-27.7,M,,*65
1508617611 - $GPGSA,A,3,21,13,24,15,20,18,29,32,10,,,,1.20,0.89,0.80*0B
1508617611 - $GPGSA,A,3,21,13,24,15,20,18,29,32,10,,,,1.20,0.89,0.80*0B
1508617611 - $GPGSA,A,3,21,13,24,15,20,18,29,32,10,,,,1.20,0.89,0.80*0B
1508617611 - ÿÿÿÿÿÿÿÿÿÿÿÿÿÿÿÿÿÿÿÿÿÿÿÿ$GPGSA,A,3,21,13,24,15,20,18,29,32,10,,,,1.20,0.89,0.80*0B
1508617611 - $GPRMC,202635.000,A,2615.8157,N,08134.6269,W,0.39,154.76,211017,,,A*7D
1508617611 - $GPRMC,202644.000,A,2615.8151,N,08134.6269,W,0.25,231.40,211017,,,A*75
1508617611 - $GPRMC,202647.000,A,2615.8150,N,08134.6270,W,0.12,209.41,211017,,,A*71
1508617611 - $GPVTG,154.76,T,,M,0.39,N,0.72,K,A*33
1508617611 - $GPVTG,175.78,T,,M,0.31,N,0.58,K,A*3E
1508617611 - $GPVTG,209.41,T,,M,0.12,N,0.23,K,A*31
1508617611 - $GPVTG,231.40,T,,M,0.25,N,0.46,K,A*3C
1508617611 - POWER - 2017-10-21, 20:26:51, 433000000, 434000000, 1000000.00, 1, 1.01, 1.01
1508617611 - POWER - 2017-10-21, 20:26:51, 434000000, 435000000, 1000000.00, 1, -1.15, -1.15
1508617611 - POWER - 2017-10-21, 20:26:51, 435000000, 436000000, 1000000.00, 1, -1.66, -1.66
1508617611 - POWER - 2017-10-21, 20:26:51, 436000000, 437000000, 1000000.00, 1, 0.96, 0.96
1508617611 - POWER - 2017-10-21, 20:26:51, 437000000, 438000000, 1000000.00, 1, 0.78, 0.78
1508617611 - POWER - 2017-10-21, 20:26:51, 438000000, 439000000, 1000000.00, 1, 2.75, 2.75
1508617611 - POWER - 2017-10-21, 20:26:51, 439000000, 440000000, 1000000.00, 1, 2.23, 2.23
1508617611 - POWER - 2017-10-21, 20:26:51, 440000000, 441000000, 1000000.00, 1, 1.90, 1.90
1508617611 - POWER - 2017-10-21, 20:26:51, 441000000, 442000000, 1000000.00, 1, -0.02, -0.02
1508617611 - POWER - 2017-10-21, 20:26:51, 442000000, 443000000, 1000000.00, 1, -0.96, -0.96
1508617611 - POWER - 2017-10-21, 20:26:51, 443000000, 444000000, 1000000.00, 1, -0.38, -0.38
1508617612 - 
1508617612 - 
1508617612 - 
1508617612 - 
1508617612 - ,-27.7,M,,*6D
1508617612 - ,-27.7,M,,*6E
1508617612 - 4
1508617612 - 6268,W,0.13,175.43,211017,,,A*74
1508617612 - 6269,W,0.21,223.26,211017,,,A*73
1508617612 - 6269,W,0.27,181.18,211017,,,A*74
1508617612 - D
1508617612 - D
1508617612 - E
1508617612 - E
1508617612 - $GPGGA,202645.000,2615.8151,N,08134.6269,W,1,09,0.89,19.0,M,-27.7,M,,*6E
1508617612 - $GPGGA,202648.000,2615.8149,N,08134.6270,W,1,09,0.89,19.0,M,-27.7,M,,*62
1508617612 - $GPGSA,A,3,21,13,24,15,20,18,29,32,10,,,,1.20,0.89,0.80*0B
1508617612 - $GPGSA,A,3,21,13,24,15,20,18,29,32,10,,,,1.20,0.89,0.80*0B
1508617612 - $GPGSA,A,3,21,13,24,15,20,18,29,32,10,,,,1.20,0.89,0.80*0B
1508617612 - $GPGSV,3,2,12,15,42,035,27,10,21,301,15,29,16,190,26,32,14,237,13*7E
1508617612 - $GPRMC,202640.000,A,2615.8153,N,08134.6269,W,0.27,181.18,211017,,,A*74
1508617612 - $GPRMC,202642.000,A,2615.8152,N,08134.6268,W,0.13,175.43,211017,,,A*74
1508617612 - $GPRMC,202645.000,A,2615.8151,N,08134.6269,W,0.21,223.26,211017,,,A*73
1508617612 - $GPRMC,202648.000,A,2615.8149,N,08134.6270,W,0.10,20.97,211017,,,A*46
1508617612 - $GPVTG,175.43,T,,M,0.13,N,0.23,K,A*3A
1508617612 - $GPVTG,181.18,T,,M,0.27,N,0.50,K,A*3C
1508617612 - $GPVTG,20.97,T,,M,0.10,N,0.19,K,A*08
1508617612 - $GPVTG,223.26,T,,M,0.21,N,0.39,K,A*33
1508617612 - POWER - 2017-10-21, 20:26:52, 433000000, 434000000, 1000000.00, 1, 0.06, 0.06
1508617612 - POWER - 2017-10-21, 20:26:52, 434000000, 435000000, 1000000.00, 1, 1.02, 1.02
1508617612 - POWER - 2017-10-21, 20:26:52, 435000000, 436000000, 1000000.00, 1, -0.97, -0.97
1508617612 - POWER - 2017-10-21, 20:26:52, 436000000, 437000000, 1000000.00, 1, -0.74, -0.74
1508617612 - POWER - 2017-10-21, 20:26:52, 437000000, 438000000, 1000000.00, 1, 1.91, 1.91
1508617612 - POWER - 2017-10-21, 20:26:52, 438000000, 439000000, 1000000.00, 1, 2.00, 2.00
1508617612 - POWER - 2017-10-21, 20:26:52, 439000000, 440000000, 1000000.00, 1, 1.12, 1.12
1508617612 - POWER - 2017-10-21, 20:26:52, 440000000, 441000000, 1000000.00, 1, 2.53, 2.53
1508617612 - POWER - 2017-10-21, 20:26:52, 441000000, 442000000, 1000000.00, 1, -1.44, -1.44
1508617612 - POWER - 2017-10-21, 20:26:52, 442000000, 443000000, 1000000.00, 1, -0.04, -0.04
1508617612 - POWER - 2017-10-21, 20:26:52, 443000000, 444000000, 1000000.00, 1, 0.39, 0.39
1508617613 - 
1508617613 - 
1508617613 - 
1508617613 - 
1508617613 - 017,,,A*73
1508617613 - ,-27.7,M,,*61
1508617613 - ,-27.7,M,,*6E
1508617613 - 6269,W,0.24,169.15,211017,,,A*75
1508617613 - 6269,W,0.38,170.11,211017,,,A*79
1508617613 - E
1508617613 - E
1508617613 - E
1508617613 - $GPGGA,202635.000,2615.8157,N,08134.6269,W,1,09,0.89,19.0,M,-27.7,M,,*6F
1508617613 - $GPGGA,202637.000,2615.8155,N,08134.6269,W,1,09,0.88,19.0,M,-27.7,M,,*6E
1508617613 - $GPGGA,202639.000,2615.8154,N,08134.6269,W,1,09,0.88,19.0,M,-27.7,M,,*61
1508617613 - $GPGGA,202649.000,2615.8150,N,08134.6270,W,1,09,0.89,19.0,M,-27.7,M,,*6B
1508617613 - $GPGSA,A,3,21,13,24,15,20,18,29,32,10,,,,1.20,0.88,0.80*0A
1508617613 - $GPGSA,A,3,21,13,24,15,20,18,29,32,10,,,,1.20,0.88,0.80*0A
1508617613 - $GPGSA,A,3,21,13,24,15,20,18,29,32,10,,,,1.20,0.89,0.80*0B
1508617613 - $GPGSV,3,3,12,13,12,041,17,27,09,311,13,05,02,091,,43,,,*4D
1508617613 - $GPRMC,202636.000,A,2615.8156,N,08134.6269,W,0.38,170.11,211017,,,A*79
1508617613 - $GPRMC,202639.000,A,2615.8154,N,08134.6269,W,0.24,169.15,211017,,,A*75
1508617613 - $GPRMC,202649.000,A,2615.8150,N,08134.6270,W,0.26,36.47,211017,,,A*40
1508617613 - $GPVTG,169.15,T,,M,0.24,N,0.44,K,A*31
1508617613 - $GPVTG,170.11,T,,M,0.38,N,0.71,K,A*36
1508617613 - $GPVTG,36.47,T,,M,0.26,N,0.48,K,A*03
1508617613 - POWER - 2017-10-21, 20:26:53, 433000000, 434000000, 1000000.00, 2, 0.52, 0.52
1508617613 - POWER - 2017-10-21, 20:26:53, 434000000, 435000000, 1000000.00, 2, -0.42, -0.42
1508617613 - POWER - 2017-10-21, 20:26:53, 435000000, 436000000, 1000000.00, 2, -0.51, -0.51
1508617613 - POWER - 2017-10-21, 20:26:53, 436000000, 437000000, 1000000.00, 2, 0.17, 0.17
1508617613 - POWER - 2017-10-21, 20:26:53, 437000000, 438000000, 1000000.00, 2, 4.33, 4.33
1508617613 - POWER - 2017-10-21, 20:26:53, 438000000, 439000000, 1000000.00, 2, 3.57, 3.57
1508617613 - POWER - 2017-10-21, 20:26:53, 439000000, 440000000, 1000000.00, 2, 1.51, 1.51
1508617613 - POWER - 2017-10-21, 20:26:53, 440000000, 441000000, 1000000.00, 2, 1.75, 1.75
1508617613 - POWER - 2017-10-21, 20:26:53, 441000000, 442000000, 1000000.00, 2, 0.55, 0.55
1508617613 - POWER - 2017-10-21, 20:26:53, 442000000, 443000000, 1000000.00, 2, 0.52, 0.52
1508617613 - POWER - 2017-10-21, 20:26:53, 443000000, 444000000, 1000000.00, 2, 0.12, 0.12
1508617614 - 
1508617614 - 
1508617614 - 
1508617614 - 
1508617614 - ,-27.7,M,,*64
1508617614 - ,-27.7,M,,*69
1508617614 - 37,13*7C
1508617614 - 4
1508617614 - *64
1508617614 - *64
1508617614 - *64
1508617614 - $GPGGA,202638.000,2615.8154,N,08134.6269,W,1,09,0.89,19.0,M,-27.7,M,,*61
1508617614 - $GPGGA,202643.000,2615.8151,N,08134.6268,W,1,09,0.89,19.0,M,-27.7,M,,*69
1508617614 - $GPGGA,202646.000,2615.8150,N,08134.6270,W,1,09,0.89,19.0,M,-27.7,M,,*64
1508617614 - $GPGGA,202650.000,2615.8150,N,08134.6270,W,1,08,1.04,19.0,M,-27.7,M,,*66
1508617614 - $GPGSA,A,3,21,13,24,15,20,18,29,32,10,,,,1.20,0.89,0.80*0B
1508617614 - $GPGSA,A,3,21,13,24,15,20,18,29,32,10,,,,1.20,0.89,0.80*0B
1508617614 - $GPGSA,A,3,21,13,24,15,20,18,29,32,,,,,1.32,1.04,0.81*0C
1508617614 - $GPGSV,3,1,12,21,74,309,23,24,53,117,30,18,46,326,18,20,42,066,26*72
1508617614 - $GPGSV,3,2,12,15,42,035,27,10,22,301,14,29,16,190,26,32,14,237,13*7C
1508617614 - $GPGSV,3,3,12,13,12,041,18,27,09,311,13,05,02,092,,45,,,*47
1508617614 - $GPRMC,202646.000,A,2615.8150,N,08134.6270,W,0.16,202.31,211017,,,A*78
1508617614 - $GPRMC,202650.000,A,2615.8150,N,08134.6270,W,0.26,32.46,211017,,,A*4D
1508617614 - $GPVTG,202.31,T,,M,0.16,N,0.30,K,A*3B
1508617614 - $GPVTG,32.46,T,,M,0.26,N,0.48,K,A*06
1508617614 - POWER - 2017-10-21, 20:26:54, 433000000, 434000000, 1000000.00, 1, 1.15, 1.15
1508617614 - POWER - 2017-10-21, 20:26:54, 434000000, 435000000, 1000000.00, 1, 1.05, 1.05
1508617614 - POWER - 2017-10-21, 20:26:54, 435000000, 436000000, 1000000.00, 1, 1.05, 1.05
1508617614 - POWER - 2017-10-21, 20:26:54, 436000000, 437000000, 1000000.00, 1, 1.44, 1.44
1508617614 - POWER - 2017-10-21, 20:26:54, 437000000, 438000000, 1000000.00, 1, 4.94, 4.94
1508617614 - POWER - 2017-10-21, 20:26:54, 438000000, 439000000, 1000000.00, 1, 3.46, 3.46
1508617614 - POWER - 2017-10-21, 20:26:54, 439000000, 440000000, 1000000.00, 1, 2.77, 2.77
1508617614 - POWER - 2017-10-21, 20:26:54, 440000000, 441000000, 1000000.00, 1, 1.95, 1.95
1508617614 - POWER - 2017-10-21, 20:26:54, 441000000, 442000000, 1000000.00, 1, 0.97, 0.97
1508617614 - POWER - 2017-10-21, 20:26:54, 442000000, 443000000, 1000000.00, 1, 1.68, 1.68
1508617614 - POWER - 2017-10-21, 20:26:54, 443000000, 444000000, 1000000.00, 1, 0.53, 0.53
1508617615 - 1017,,,A*71
1508617615 - ,-27.7,M,,*69
1508617615 - 37,12*7E
1508617615 - 6268,W,0.13,240.27,211017,,,A*71
1508617615 - 6269,W,0.25,164.84,211017,,,A*78
1508617615 - 6269,W,0.27,177.28,211017,,,A*76
1508617615 - ;±67‡;$GPGSV,3,3,12,13,12,041,17,27,09,311,13,05,02,092,,43,,,*4E
1508617615 - ±67‡;$GPRMC,202638.000,A,2615.8154,N,08134.6269,W,0.27,177.28,211017,,,A*76
1508617615 - ;±67‡;$GPRMC,202641.000,A,2615.8152,N,08134.6269,W,0.25,164.84,211017,,,A*78
1508617615 - ±67‡;$GPVTG,164.84,T,,M,0.25,N,0.46,K,A*37
1508617615 - ±67‡;$GPVTG,177.28,T,,M,0.27,N,0.50,K,A*36
1508617615 - *69
1508617615 - $GPGGA,202641.000,2615.8152,N,08134.6269,W,1,09,0.89,19.0,M,-27.7,M,,*69
1508617615 - $GPGSA,A,3,21,13,24,15,20,18,29,32,10,,,,1.20,0.89,0.80*0B
1508617615 - $GPGSA,A,3,21,13,24,15,20,18,29,32,10,,,,1.20,0.89,0.80*0B
1508617615 - $GPGSV,3,1,12,21,74,309,23,24,53,117,30,18,46,326,20,20,42,066,26*79
1508617615 - $GPGSV,3,2,12,15,42,035,27,10,21,301,14,29,16,190,26,32,14,237,12*7E
1508617615 - ÿÿÿÿÿÿÿÿÿÿÿÿÿÿÿÿÿÿÿÿÿÿÿÿ$GPRMC,202643.000,A,2615.8151,N,08134.6268,W,0.13,240.27,211017,,,A*71
1508617615 - $GPVTG,240.27,T,,M,0.13,N,0.23,K,A*3D
1508617615 - POWER - 2017-10-21, 20:26:55, 433000000, 434000000, 1000000.00, 2, 1.15, 1.15
1508617615 - POWER - 2017-10-21, 20:26:55, 434000000, 435000000, 1000000.00, 2, 0.09, 0.09
1508617615 - POWER - 2017-10-21, 20:26:55, 435000000, 436000000, 1000000.00, 2, 1.57, 1.57
1508617615 - POWER - 2017-10-21, 20:26:55, 436000000, 437000000, 1000000.00, 2, 1.84, 1.84
1508617615 - POWER - 2017-10-21, 20:26:55, 437000000, 438000000, 1000000.00, 2, 5.75, 5.75
1508617615 - POWER - 2017-10-21, 20:26:55, 438000000, 439000000, 1000000.00, 2, 4.23, 4.23
1508617615 - POWER - 2017-10-21, 20:26:55, 439000000, 440000000, 1000000.00, 2, 2.52, 2.52
1508617615 - POWER - 2017-10-21, 20:26:55, 440000000, 441000000, 1000000.00, 2, 1.81, 1.81
1508617615 - POWER - 2017-10-21, 20:26:55, 441000000, 442000000, 1000000.00, 2, 0.29, 0.29
1508617615 - POWER - 2017-10-21, 20:26:55, 442000000, 443000000, 1000000.00, 2, 0.07, 0.07
1508617615 - POWER - 2017-10-21, 20:26:55, 443000000, 444000000, 1000000.00, 2, 0.55, 0.55
1508617616 - 
1508617616 - 
1508617616 - 
1508617616 - 
1508617616 - 
1508617616 - 
1508617616 - 
1508617616 - 
1508617616 - 1017,,,A*71
1508617616 - ,-27.7,M,,*65
1508617616 - 5
1508617616 - 5
1508617616 - 5
1508617616 - 5
1508617616 - 6270,W,0.12,209.41,211017,,,A*71
1508617616 - 6270,W,0.12,209.41,211017,,,A*71
1508617616 - ±67‡;$GPGGA,202651.000,2615.8151,N,08134.6269,W,1,08,1.04,19.0,M,-27.7,M,,*6E
1508617616 - $GPGGA,202647.000,2615.8150,N,08134.6270,W,1,09,0.89,19.0,M,-27.7,M,,*65
1508617616 - $GPGSA,A,3,21,13,24,15,20,18,29,32,10,,,,1.20,0.89,0.80*0B
1508617616 - $GPGSA,A,3,21,13,24,15,20,18,29,32,10,,,,1.20,0.89,0.80*0B
1508617616 - $GPGSA,A,3,21,13,24,15,20,18,29,32,,,,,1.32,1.04,0.81*0C
1508617616 - $GPGSV,4,1,13,21,74,309,23,24,53,117,31,18,46,326,17,20,42,066,26*7A
1508617616 - $GPGSV,4,2,13,15,42,035,26,10,22,301,,29,16,190,26,32,14,237,13*7E
1508617616 - $GPGSV,4,3,13,13,12,041,18,27,09,311,13,05,02,092,,14,01,230,*75
1508617616 - $GPGSV,4,4,13,46,,,*79
1508617616 - $GPRMC,202637.000,A,2615.8155,N,08134.6269,W,0.31,175.78,211017,,,A*78
1508617616 - $GPRMC,202647.000,A,2615.8150,N,08134.6270,W,0.12,209.41,211017,,,A*71
1508617616 - $GPRMC,202651.000,A,2615.8151,N,08134.6269,W,0.32,74.07,211017,,,A*47
1508617616 - $GPVTG,175.78,T,,M,0.31,N,0.58,K,A*3E
1508617616 - $GPVTG,209.41,T,,M,0.12,N,0.23,K,A*31
1508617616 - $GPVTG,74.07,T,,M,0.32,N,0.59,K,A*04
1508617616 - POWER - 2017-10-21, 20:26:56, 433000000, 434000000, 1000000.00, 1, 0.81, 0.81
1508617616 - POWER - 2017-10-21, 20:26:56, 434000000, 435000000, 1000000.00, 1, -0.20, -0.20
1508617616 - POWER - 2017-10-21, 20:26:56, 435000000, 436000000, 1000000.00, 1, -0.93, -0.93
1508617616 - POWER - 2017-10-21, 20:26:56, 436000000, 437000000, 1000000.00, 1, -0.60, -0.60
1508617616 - POWER - 2017-10-21, 20:26:56, 437000000, 438000000, 1000000.00, 1, 0.82, 0.82
1508617616 - POWER - 2017-10-21, 20:26:56, 438000000, 439000000, 1000000.00, 1, 3.68, 3.68
1508617616 - POWER - 2017-10-21, 20:26:56, 439000000, 440000000, 1000000.00, 1, 2.60, 2.60
1508617616 - POWER - 2017-10-21, 20:26:56, 440000000, 441000000, 1000000.00, 1, 1.30, 1.30
1508617616 - POWER - 2017-10-21, 20:26:56, 441000000, 442000000, 1000000.00, 1, -1.19, -1.19
1508617616 - POWER - 2017-10-21, 20:26:56, 442000000, 443000000, 1000000.00, 1, -0.92, -0.92
1508617616 - POWER - 2017-10-21, 20:26:56, 443000000, 444000000, 1000000.00, 1, -0.18, -0.18
1508617617 - 
1508617617 - 
1508617617 - 
1508617617 - 
1508617617 - ,-27.7,M,,*6F
1508617617 - 6269,W,0.25,231.40,211017,,,A*75
1508617617 - 6269,W,0.39,154.76,211017,,,A*7D
1508617617 - F
1508617617 - F
1508617617 - F
1508617617 - F
1508617617 - $GPGGA,202636.000,2615.8156,N,08134.6269,W,1,09,0.89,19.0,M,-27.7,M,,*6D
1508617617 - $GPGGA,202644.000,2615.8151,N,08134.6269,W,1,09,0.89,19.0,M,-27.7,M,,*6F
1508617617 - $GPGGA,202652.000,2615.8151,N,08134.6268,W,1,09,0.89,19.0,M,-27.7,M,,*69
1508617617 - $GPGSA,A,3,21,13,24,15,20,18,29,32,10,,,,1.20,0.89,0.80*0B
1508617617 - $GPGSA,A,3,21,13,24,15,20,18,29,32,10,,,,1.20,0.89,0.80*0B
1508617617 - $GPGSA,A,3,21,13,24,15,20,18,29,32,10,,,,1.20,0.89,0.80*0B
1508617617 - ÿÿÿ$GPGSA,A,3,21,13,24,15,20,18,29,32,10,,,,1.20,0.89,0.80*0B
1508617617 - $GPRMC,202635.000,A,2615.8157,N,08134.6269,W,0.39,154.76,211017,,,A*7D
1508617617 - ÿÿÿ$GPRMC,202642.000,A,2615.8152,N,08134.6268,W,0.13,175.43,211017,,,A*74
1508617617 - $GPRMC,202644.000,A,2615.8151,N,08134.6269,W,0.25,231.40,211017,,,A*75
1508617617 - $GPRMC,202652.000,A,2615.8151,N,08134.6268,W,0.54,91.64,211017,,,A*4B
1508617617 - $GPVTG,154.76,T,,M,0.39,N,0.72,K,A*33
1508617617 - $GPVTG,231.40,T,,M,0.25,N,0.46,K,A*3C
1508617617 - $GPVTG,91.64,T,,M,0.54,N,1.01,K,A*06
1508617617 - POWER - 2017-10-21, 20:26:57, 433000000, 434000000, 1000000.00, 1, -0.25, -0.25
1508617617 - POWER - 2017-10-21, 20:26:57, 434000000, 435000000, 1000000.00, 1, 0.03, 0.03
1508617617 - POWER - 2017-10-21, 20:26:57, 435000000, 436000000, 1000000.00, 1, -1.87, -1.87
1508617617 - POWER - 2017-10-21, 20:26:57, 436000000, 437000000, 1000000.00, 1, -0.23, -0.23
1508617617 - POWER - 2017-10-21, 20:26:57, 437000000, 438000000, 1000000.00, 1, 0.36, 0.36
1508617617 - POWER - 2017-10-21, 20:26:57, 438000000, 439000000, 1000000.00, 1, 2.90, 2.90
1508617617 - POWER - 2017-10-21, 20:26:57, 439000000, 440000000, 1000000.00, 1, 1.82, 1.82
1508617617 - POWER - 2017-10-21, 20:26:57, 440000000, 441000000, 1000000.00, 1, 1.82, 1.82
1508617617 - POWER - 2017-10-21, 20:26:57, 441000000, 442000000, 1000000.00, 1, -0.97, -0.97
1508617617 - POWER - 2017-10-21, 20:26:57, 442000000, 443000000, 1000000.00, 1, 0.38, 0.38
1508617617 - POWER - 2017-10-21, 20:26:57, 443000000, 444000000, 1000000.00, 1, 0.31, 0.31
1508617618 - 
1508617618 - 
1508617618 - 
1508617618 - 
1508617618 - 2
1508617618 - 2
1508617618 - 2
1508617618 - ,-27.7,M,,*62
1508617618 - ,-27.7,M,,*6E
1508617618 - 4
1508617618 - 62
1508617618 - 62
1508617618 - 6268,W,0.13,175.43,211017,,,A*74
1508617618 - 6269,W,0.27,181.18,211017,,,A*74
1508617618 - .6270,W,0.10,20.97,211017,,,A*46
1508617618 - $GPGGA,202645.000,2615.8151,N,08134.6269,W,1,09,0.89,19.0,M,-27.7,M,,*6E
1508617618 - $GPGGA,202648.000,2615.8149,N,08134.6270,W,1,09,0.89,19.0,M,-27.7,M,,*62
1508617618 - $GPGGA,202653.000,2615.8151,N,08134.6266,W,1,09,0.89,19.0,M,-27.7,M,,*66
1508617618 - $GPGSA,A,3,21,13,24,15,20,18,29,32,10,,,,1.19,0.89,0.80*01
1508617618 - $GPGSA,A,3,21,13,24,15,20,18,29,32,10,,,,1.20,0.89,0.80*0B
1508617618 - $GPGSA,A,3,21,13,24,15,20,18,29,32,10,,,,1.20,0.89,0.80*0B
1508617618 - $GPGSV,3,2,12,15,42,035,27,10,21,301,15,29,16,190,26,32,14,237,13*7E
1508617618 - $GPRMC,202640.000,A,2615.8153,N,08134.6269,W,0.27,181.18,211017,,,A*74
1508617618 - $GPRMC,202648.000,A,2615.8149,N,08134.6270,W,0.10,20.97,211017,,,A*46
1508617618 - $GPRMC,202653.000,A,2615.8151,N,08134.6266,W,0.63,97.13,211017,,,A*46
1508617618 - $GPVTG,175.43,T,,M,0.13,N,0.23,K,A*3A
1508617618 - $GPVTG,181.18,T,,M,0.27,N,0.50,K,A*3C
1508617618 - $GPVTG,20.97,T,,M,0.10,N,0.19,K,A*08
1508617618 - $GPVTG,97.13,T,,M,0.63,N,1.17,K,A*03
1508617618 - POWER - 2017-10-21, 20:26:58, 433000000, 434000000, 1000000.00, 2, 0.12, 0.12
1508617618 - POWER - 2017-10-21, 20:26:58, 434000000, 435000000, 1000000.00, 2, 0.03, 0.03
1508617618 - POWER - 2017-10-21, 20:26:58, 435000000, 436000000, 1000000.00, 2, -0.29, -0.29
1508617618 - POWER - 2017-10-21, 20:26:58, 436000000, 437000000, 1000000.00, 2, 0.28, 0.28
1508617618 - POWER - 2017-10-21, 20:26:58, 437000000, 438000000, 1000000.00, 2, 1.30, 1.30
1508617618 - POWER - 2017-10-21, 20:26:58, 438000000, 439000000, 1000000.00, 2, 2.69, 2.69
1508617618 - POWER - 2017-10-21, 20:26:58, 439000000, 440000000, 1000000.00, 2, 1.36, 1.36
1508617618 - POWER - 2017-10-21, 20:26:58, 440000000, 441000000, 1000000.00, 2, 1.49, 1.49
1508617618 - POWER - 2017-10-21, 20:26:58, 441000000, 442000000, 1000000.00, 2, -0.67, -0.67
1508617618 - POWER - 2017-10-21, 20:26:58, 442000000, 443000000, 1000000.00, 2, -1.02, -1.02
1508617618 - POWER - 2017-10-21, 20:26:58, 443000000, 444000000, 1000000.00, 2, -0.85, -0.85
1508617619 - 017,,,A*73
1508617619 - ,-27.7,M,,*61
1508617619 - ,-27.7,M,,*6B
1508617619 - 6269,W,0.21,223.26,211017,,,A*73
1508617619 - 6269,W,0.38,170.11,211017,,,A*79
1508617619 - .6270,W,0.26,36.47,211017,,,A*40
1508617619 - 6B
1508617619 - 6B
1508617619 - B
1508617619 - $GPGGA,202635.000,2615.8157,N,08134.6269,W,1,09,0.89,19.0,M,-27.7,M,,*6F
1508617619 - $GPGGA,202639.000,2615.8154,N,08134.6269,W,1,09,0.88,19.0,M,-27.7,M,,*61
1508617619 - $GPGGA,202649.000,2615.8150,N,08134.6270,W,1,09,0.89,19.0,M,-27.7,M,,*6B
1508617619 - $GPGSA,A,3,21,13,24,15,20,18,29,32,10,,,,1.20,0.88,0.80*0A
1508617619 - $GPGSA,A,3,21,13,24,15,20,18,29,32,10,,,,1.20,0.89,0.80*0B
1508617619 - $GPGSV,3,3,12,13,12,041,17,27,09,311,13,05,02,091,,43,,,*4D
1508617619 - $GPRMC,202636.000,A,2615.8156,N,08134.6269,W,0.38,170.11,211017,,,A*79
1508617619 - $GPRMC,202639.000,A,2615.8154,N,08134.6269,W,0.24,169.15,211017,,,A*75
1508617619 - $GPRMC,202645.000,A,2615.8151,N,08134.6269,W,0.21,223.26,211017,,,A*73
1508617619 - $GPRMC,202649.000,A,2615.8150,N,08134.6270,W,0.26,36.47,211017,,,A*40
1508617619 - $GPVTG,170.11,T,,M,0.38,N,0.71,K,A*36
1508617619 - $GPVTG,223.26,T,,M,0.21,N,0.39,K,A*33
1508617619 - $GPVTG,36.47,T,,M,0.26,N,0.48,K,A*03
1508617619 - POWER - 2017-10-21, 20:26:59, 433000000, 434000000, 1000000.00, 1, 0.68, 0.68
1508617619 - POWER - 2017-10-21, 20:26:59, 434000000, 435000000, 1000000.00, 1, -1.53, -1.53
1508617619 - POWER - 2017-10-21, 20:26:59, 435000000, 436000000, 1000000.00, 1, -0.23, -0.23
1508617619 - POWER - 2017-10-21, 20:26:59, 436000000, 437000000, 1000000.00, 1, 1.26, 1.26
1508617619 - POWER - 2017-10-21, 20:26:59, 437000000, 438000000, 1000000.00, 1, 5.02, 5.02
1508617619 - POWER - 2017-10-21, 20:26:59, 438000000, 439000000, 1000000.00, 1, 2.69, 2.69
1508617619 - POWER - 2017-10-21, 20:26:59, 439000000, 440000000, 1000000.00, 1, 2.00, 2.00
1508617619 - POWER - 2017-10-21, 20:26:59, 440000000, 441000000, 1000000.00, 1, 3.01, 3.01
1508617619 - POWER - 2017-10-21, 20:26:59, 441000000, 442000000, 1000000.00, 1, 0.38, 0.38
1508617619 - POWER - 2017-10-21, 20:26:59, 442000000, 443000000, 1000000.00, 1, -0.18, -0.18
1508617619 - POWER - 2017-10-21, 20:26:59, 443000000, 444000000, 1000000.00, 1, 0.71, 0.71
1508617620 - 
1508617620 - 
1508617620 - 
1508617620 - 
1508617620 - ,-27.7,M,,*64
1508617620 - ,-27.7,M,,*69
1508617620 - ,-27.7,M,,*6E
1508617620 - 6269,W,0.24,169.15,211017,,,A*75
1508617620 - *64
1508617620 - B
1508617620 - $GPGGA,202637.000,2615.8155,N,08134.6269,W,1,09,0.88,19.0,M,-27.7,M,,*6E
1508617620 - $GPGGA,202638.000,2615.8154,N,08134.6269,W,1,09,0.89,19.0,M,-27.7,M,,*61
1508617620 - $GPGGA,202643.000,2615.8151,N,08134.6268,W,1,09,0.89,19.0,M,-27.7,M,,*69
1508617620 - $GPGGA,202646.000,2615.8150,N,08134.6270,W,1,09,0.89,19.0,M,-27.7,M,,*64
1508617620 - $GPGGA,202654.000,2615.8151,N,08134.6265,W,1,09,0.89,18.9,M,-27.7,M,,*6A
1508617620 - $GPGSA,A,3,21,13,24,15,20,18,29,32,10,,,,1.19,0.89,0.80*01
1508617620 - $GPGSA,A,3,21,13,24,15,20,18,29,32,10,,,,1.20,0.88,0.80*0A
1508617620 - $GPGSA,A,3,21,13,24,15,20,18,29,32,10,,,,1.20,0.89,0.80*0B
1508617620 - $GPGSA,A,3,21,13,24,15,20,18,29,32,10,,,,1.20,0.89,0.80*0B
1508617620 - $GPGSV,3,1,12,21,74,309,23,24,53,117,30,18,46,326,18,20,42,066,26*72
1508617620 - $GPRMC,202654.000,A,2615.8151,N,08134.6265,W,0.68,97.95,211017,,,A*47
1508617620 - $GPVTG,169.15,T,,M,0.24,N,0.44,K,A*31
1508617620 - $GPVTG,97.95,T,,M,0.68,N,1.25,K,A*07
1508617620 - POWER - 2017-10-21, 20:27:00, 433000000, 434000000, 1000000.00, 1, 1.22, 1.22
1508617620 - POWER - 2017-10-21, 20:27:00, 434000000, 435000000, 1000000.00, 1, 0.30, 0.30
1508617620 - POWER - 2017-10-21, 20:27:00, 435000000, 436000000, 1000000.00, 1, 1.18, 1.18
1508617620 - POWER - 2017-10-21, 20:27:00, 436000000, 437000000, 1000000.00, 1, 2.17, 2.17
1508617620 - POWER - 2017-10-21, 20:27:00, 437000000, 438000000, 1000000.00, 1, 5.56, 5.56
1508617620 - POWER - 2017-10-21, 20:27:00, 438000000, 439000000, 1000000.00, 1, 3.56, 3.56
1508617620 - POWER - 2017-10-21, 20:27:00, 439000000, 440000000, 1000000.00, 1, 2.17, 2.17
1508617620 - POWER - 2017-10-21, 20:27:00, 440000000, 441000000, 1000000.00, 1, 1.56, 1.56
1508617620 - POWER - 2017-10-21, 20:27:00, 441000000, 442000000, 1000000.00, 1, -0.43, -0.43
1508617620 - POWER - 2017-10-21, 20:27:00, 442000000, 443000000, 1000000.00, 1, 0.13, 0.13
1508617620 - POWER - 2017-10-21, 20:27:00, 443000000, 444000000, 1000000.00, 1, 1.37, 1.37
1508617621 - 
1508617621 - 
1508617621 - 
1508617621 - 
1508617621 - ,-27.7,M,,*6C
1508617621 - 37,13*7C
1508617621 - 37,13*7C
1508617621 - 4
1508617621 - 4
1508617621 - 45,,,*47
1508617621 - *64
1508617621 - *64
1508617621 - *64
1508617621 - C
1508617621 - $GPGGA,202650.000,2615.8150,N,08134.6270,W,1,08,1.04,19.0,M,-27.7,M,,*66
1508617621 - $GPGGA,202650.000,2615.8150,N,08134.6270,W,1,08,1.04,19.0,M,-27.7,M,,*66
1508617621 - $GPGGA,202655.000,2615.8150,N,08134.6263,W,1,09,0.89,18.9,M,-27.7,M,,*6C
1508617621 - $GPGGA,202655.000,2615.8150,N,08134.6263,W,1,09,0.89,18.9,M,-27.7,M,,*6C
1508617621 - $GPGSA,A,3,21,13,24,15,20,18,29,32,10,,,,1.20,0.89,0.80*0B
1508617621 - $GPGSA,A,3,21,13,24,15,20,18,29,32,10,,,,1.20,0.89,0.80*0B
1508617621 - $GPGSV,3,2,12,15,42,035,27,10,22,301,14,29,16,190,26,32,14,237,13*7C
1508617621 - $GPGSV,3,3,12,13,12,041,18,27,09,311,13,05,02,092,,45,,,*47
1508617621 - $GPRMC,202646.000,A,2615.8150,N,08134.6270,W,0.16,202.31,211017,,,A*78
1508617621 - $GPRMC,202646.000,A,2615.8150,N,08134.6270,W,0.16,202.31,211017,,,A*78
1508617621 - $GPRMC,202655.000,A,2615.8150,N,08134.6263,W,0.65,100.13,211017,,,A*7D
1508617621 - $GPRMC,202655.000,A,2615.8150,N,08134.6263,W,0.65,100.13,211017,,,A*7D
1508617621 - $GPVTG,100.13,T,,M,0.65,N,1.20,K,A*3E
1508617621 - POWER - 2017-10-21, 20:27:01, 433000000, 434000000, 1000000.00, 2, 0.36, 0.36
1508617621 - POWER - 2017-10-21, 20:27:01, 434000000, 435000000, 1000000.00, 2, 0.12, 0.12
1508617621 - POWER - 2017-10-21, 20:27:01, 435000000, 436000000, 1000000.00, 2, 0.91, 0.91
1508617621 - POWER - 2017-10-21, 20:27:01, 436000000, 437000000, 1000000.00, 2, 0.97, 0.97
1508617621 - POWER - 2017-10-21, 20:27:01, 437000000, 438000000, 1000000.00, 2, 3.47, 3.47
1508617621 - POWER - 2017-10-21, 20:27:01, 438000000, 439000000, 1000000.00, 2, 3.50, 3.50
1508617621 - POWER - 2017-10-21, 20:27:01, 439000000, 440000000, 1000000.00, 2, 2.28, 2.28
1508617621 - POWER - 2017-10-21, 20:27:01, 440000000, 441000000, 1000000.00, 2, 2.18, 2.18
1508617621 - POWER - 2017-10-21, 20:27:01, 441000000, 442000000, 1000000.00, 2, -0.36, -0.36
1508617621 - POWER - 2017-10-21, 20:27:01, 442000000, 443000000, 1000000.00, 2, 0.15, 0.15
1508617621 - POWER - 2017-10-21, 20:27:01, 443000000, 444000000, 1000000.00, 2, 0.20, 0.20
1508617622 - 
1508617622 - 
1508617622 - 
1508617622 - 
1508617622 - ,-27.7,M,,*6C
