1508617972 - POWER - 2017-10-21, 20:32:52, 433000000, 434000000, 1000000.00, 95, -0.34, -0.34
1508617973 - POWER - 2017-10-21, 20:32:53, 433000000, 434000000, 1000000.00, 122, -0.45, -0.45
1508617974 - POWER - 2017-10-21, 20:32:54, 433000000, 434000000, 1000000.00, 122, -0.53, -0.53
1508617975 - POWER - 2017-10-21, 20:32:55, 433000000, 434000000, 1000000.00, 122, -0.63, -0.63
1508617970 - 3250.000,A,2615.8141,N,08134.6249,W,0.17,266.00,211017,,,D*74
1508617970 - 
1508617970 - $GPVTG,266.00,T,,M,0.17,N,0.32,K,D*3D
1508617970 - 
1508617970 - $GPGGA,203209.000,2615.8141,N,08134.6231,W,2,09,0.89,15.2,M,-27.7,M,0000,0000*62
1508617970 - ¿)T*$GPGSA,A,3,21,13,24,15,20,18,29,32,10,,,,1.19,0.89,0.79*07
1508617970 - ,-27.7,M,0000,0000*62
1508617970 - ¿)T*$GPRMC,203209.000,A,2615.8141,N,08134.6231,W,0.19,319.24,211017,,,D*76
1508617971 - 0,0000*62
1508617971 - ¿)T*$GPGGA,203212.000,2615.8142,N,08134.6231,W,2,09,0.89,15.2,M,-27.7,M,0000,0000*6B
1508617971 - ¿)T*$GPGGA,203251.000,2615.8141,N,08134.6250,W,2,09,0.89,14.9,M,-27.7,M,0000,0000*62
1508617971 - 
1508617971 - $GPGSA,A,3,21,13,24,15,20,18,29,32,10,,,,1.19,0.89,0.79*07
1508617971 - 
1508617971 - $GPGSV,4,1,13,21,76,301,35,24,54,112,26,18,48,329,23,51,48,227,30*79
1508617971 - 
1508617971 - $GPGSV,4,2,13,20,41,070,25,15,40,036,35,10,23,303,22,32,16,239,23*76
1508617971 - 
1508617971 - $GPGSV,4,3,13,29,14,188,31,13,10,042,23,27,09,309,18,14,02,232,*7E
1508617971 - 
1508617971 - $GPGSV,4,4,13,05,01,094,16*45
1508617971 - 
1508617971 - $GPRMC,203251.000,A,2615.8141,N,08134.6250,W,0.18,273.78,211017,,,D*79
1508617971 - 
1508617971 - $GPVTG,273.78,T,,M,0.18,N,0.34,K,D*3F
1508617971 - 
1508617972 - $GPGSA,A,3,21,13,24,15,20,18,29,32,10,,,,1.57,0.89,1.29*09
1508617972 - ÿÿÿ$GPRMC,203212.000,A,2615.8142,N,08134.6231,W,0.15,332.98,211017,,,D*7D
1508617972 - $GPVTG,332.98,T,,M,0.15,N,0.28,K,D*35
1508617972 - 6231,W,0.15,332.98,211017,,,D*7D
1508617972 - $GPVTG,319.24,T,,M,0.19,N,0.35,K,D*3B
1508617972 - 6231,W,0.15,332.98,211017,,,D*7D
1508617972 - $GPVTG,266.00,T,,M,0.17,N,0.32,K,D*3D
1508617972 - 141,N,08134.6249,W,0.17,266.00,211017,,,D*74
1508617972 - $GPGGA,203209.000,2615.8141,N,08134.6231,W,2,09,0.89,15.2,M,-27.7,M,0000,0000*62
1508617972 - 4
1508617972 - $GPGSA,A,3,21,13,24,15,20,18,29,32,10,,,,1.19,0.89,0.79*07
1508617972 - ,-27.7,M,0000,0000*62
1508617972 - 4
1508617972 - $GPRMC,203209.000,A,2615.8141,N,08134.6231,W,0.19,319.24,211017,,,D*76
1508617972 - 0,0000*62
1508617972 - 4
1508617972 - $GPGGA,203212.000,2615.8142,N,08134.6231,W,2,09,0.89,15.2,M,-27.7,M,0000,0000*6B
1508617972 - 4
1508617972 - $GPGGA,203251.000,2615.8141,N,08134.6250,W,2,09,0.89,14.9,M,-27.7,M,0000,0000*62
1508617972 - 4
1508617972 - $GPGSA,A,3,21,13,24,15,20,18,29,32,10,,,,1.19,0.89,0.79*07
1508617972 - ,-27.7,M,0000,0000*62
1508617972 - 4
1508617972 - $GPGSV,4,1,13,21,76,301,35,24,54,112,26,18,48,329,23,51,48,227,30*79
1508617972 - 000,0000*62
1508617972 - 4
1508617973 - $GPGGA,203252.000,2615.8141,N,08134.6251,W,2,09,0.89,14.9,M,-27.7,M,0000,0000*60
1508617973 - 
1508617973 - $GPGSA,A,3,21,13,24,15,20,18,29,32,10,,,,1.19,0.89,0.79*07
1508617973 - 
1508617973 - $GPRMC,203252.000,A,2615.8141,N,08134.6251,W,0.17,294.87,211017,,,D*7D
1508617973 - 
1508617973 - $GPVTG,294.87,T,,M,0.17,N,0.31,K,D*3C
1508617973 - 
1508617973 - $GPGSV,4,2,13,20,41,070,25,15,40,036,35,10,23,303,22,32,16,239,23*76
1508617973 - $GPGSV,4,3,13,29,14,188,31,13,10,042,23,27,09,309,18,14,02,232,*7E
1508617973 - 6
1508617973 - $GPGSV,4,4,13,05,01,094,16*45
1508617973 - 10,042,23,27,09,309,18,14,02,232,*7E
1508617973 - 6
1508617973 - $GPRMC,203251.000,A,2615.8141,N,08134.6250,W,0.18,273.78,211017,,,D*79
1508617973 - $GPVTG,273.78,T,,M,0.18,N,0.34,K,D*3F
1508617973 - 6250,W,0.18,273.78,211017,,,D*79
1508617973 - $GPGSA,A,3,21,13,24,15,20,18,29,32,10,,,,1.57,0.89,1.29*09
1508617973 - 1017,,,D*79
1508617973 - $GPRMC,203212.000,A,2615.8142,N,08134.6231,W,0.15,332.98,211017,,,D*7D
1508617973 - $GPVTG,332.98,T,,M,0.15,N,0.28,K,D*35
1508617973 - 6231,W,0.15,332.98,211017,,,D*7D
1508617973 - $GPVTG,319.24,T,,M,0.19,N,0.35,K,D*3B
1508617973 - 6231,W,0.15,332.98,211017,,,D*7D
1508617973 - $GPVTG,266.00,T,,M,0.17,N,0.32,K,D*3D
1508617973 - 6231,W,0.15,332.98,211017,,,D*7D
1508617974 - $GPGGA,203209.000,2615.8141,N,08134.6231,W,2,09,0.89,15.2,M,-27.7,M,0000,0000*62
1508617974 - $GPGSA,A,3,21,13,24,15,20,18,29,32,10,,,,1.19,0.89,0.79*07
1508617974 - ,-27.7,M,0000,0000*62
1508617974 - $GPRMC,203209.000,A,2615.8141,N,08134.6231,W,0.19,319.24,211017,,,D*76
1508617974 - 0,0000*62
1508617974 - $GPGGA,203253.000,2615.8141,N,08134.6251,W,2,09,0.89,14.9,M,-27.7,M,0000,0000*61
1508617974 - 
1508617974 - $GPGSA,A,3,21,13,24,15,20,18,29,32,10,,,,1.19,0.89,0.79*07
1508617974 - 
1508617974 - $GPRMC,203253.000,A,2615.8141,N,08134.6251,W,0.25,305.75,211017,,,D*79
1508617974 - 
1508617974 - $GPVTG,305.75,T,,M,0.25,N,0.46,K,D*39
1508617974 - 
1508617974 - $GPGGA,203212.000,2615.8142,N,08134.6231,W,2,09,0.89,15.2,M,-27.7,M,0000,0000*6B
1508617974 - $GPGGA,203251.000,2615.8141,N,08134.6250,W,2,09,0.89,14.9,M,-27.7,M,0000,0000*62
1508617974 - $GPGSA,A,3,21,13,24,15,20,18,29,32,10,,,,1.19,0.89,0.79*07
1508617974 - ,-27.7,M,0000,0000*62
1508617974 - $GPGSV,4,1,13,21,76,301,35,24,54,112,26,18,48,329,23,51,48,227,30*79
1508617974 - 000,0000*62
1508617974 - $GPGGA,203252.000,2615.8141,N,08134.6251,W,2,09,0.89,14.9,M,-27.7,M,0000,0000*60
1508617974 - $GPGSA,A,3,21,13,24,15,20,18,29,32,10,,,,1.19,0.89,0.79*07
1508617974 - ,-27.7,M,0000,0000*60
1508617975 - $GPRMC,203252.000,A,2615.8141,N,08134.6251,W,0.17,294.87,211017,,,D*7D
1508617975 - 0,0000*60
